系统,线路,站名,站间距(km),累计里程(km),经度,纬度,station ID,pinyin,year of opening
上海地铁,地铁10号线,基隆路,0.0,0.0,121.590411,31.351311,310100027703034,,
上海地铁,地铁10号线,港城路,1.477,1.477,121.575017,31.353223,310100024540029,,
上海地铁,地铁10号线,高桥,1.146,2.623,121.562971,31.352622,310100027703032,,
上海地铁,地铁10号线,高桥西,1.306,3.929,121.54928,31.351489,310100027703031,,
上海地铁,地铁10号线,双江路,0.965,4.894,121.539425,31.353601,310100027703030,,
上海地铁,地铁10号线,国帆路,2.943,7.837,121.513168,31.339548,310100027703029,,
上海地铁,地铁10号线,新江湾城,1.363,9.2,121.506951,31.328496,310100027703028,,
上海地铁,地铁10号线,殷高东路,0.748,9.948,121.506797,31.321768,310100027703027,,
上海地铁,地铁10号线,三门路,0.962,10.91,121.50834,31.313214,310100027703026,,
上海地铁,地铁10号线,江湾体育场,1.099,12.009,121.513314,31.304293,310100027703025,,
上海地铁,地铁10号线,五角场,0.706,12.715,121.514632,31.298043,310100027703024,,
上海地铁,地铁10号线,国权路,1.069,13.784,121.510024,31.289276,310100027703023,,
上海地铁,地铁10号线,同济大学,0.872,14.656,121.506357,31.282086,310100027703022,,
上海地铁,地铁10号线,四平路,0.925,15.581,121.501488,31.27488,310100025709010,,
上海地铁,地铁10号线,邮电新村,0.994,16.575,121.494247,31.268431,310100027703020,,
上海地铁,地铁10号线,海伦路,1.144,17.719,121.488697,31.259303,310100027703019,,
上海地铁,地铁10号线,四川北路,0.914,18.633,121.484208,31.252035,310100027703018,,
上海地铁,地铁10号线,天潼路,0.931,19.564,121.482321,31.243815,310100025711016,,
上海地铁,地铁10号线,南京东路,0.672,20.236,121.484628,31.238101,310100025693011,,
上海地铁,地铁10号线,豫园,1.154,21.39,121.487426,31.228005,310100027599018,,
上海地铁,地铁10号线,老西门,1.058,22.448,121.483793,31.219014,310100025709018,,
上海地铁,地铁10号线,一大会址·新天地,0.87,23.318,121.475182,31.216367,310100024524015,,
上海地铁,地铁10号线,陕西南路,1.569,24.887,121.458741,31.215148,310100025685019,,
上海地铁,地铁10号线,上海图书馆,1.584,26.471,121.444363,31.20796,310100027703011,,
上海地铁,地铁10号线,交通大学,1.077,27.548,121.435253,31.202213,310100024518022,,
上海地铁,地铁10号线,虹桥路,1.469,29.017,121.420814,31.197524,310100027703009,,
上海地铁,地铁10号线,宋园路,0.838,29.855,121.41208,31.19654,310100027703008,,
上海地铁,地铁10号线,伊犁路,0.82,30.675,121.403899,31.19888,310100027703007,,
上海地铁,地铁10号线,水城路,1.109,31.784,121.392259,31.199482,310100027703006,,
上海地铁,地铁10号线,龙溪路,1.293,33.077,121.380034,31.1944,310100027703005,,
上海地铁,地铁10号线,上海动物园,1.222,34.299,121.368137,31.190246,310100027704005,,
上海地铁,地铁10号线,虹桥1号航站楼,1.979,36.278,121.347371,31.191363,310100027704004,,
上海地铁,地铁10号线,虹桥2号航站楼,2.201,38.479,121.324443,31.194055,310100025693021,,
上海地铁,地铁10号线,虹桥火车站,0.522,39.001,121.31895,31.194022,310100025693022,,
上海地铁,地铁11号线,迪士尼,0.0,0.0,121.667959,31.141263,310100024518036,,
上海地铁,地铁11号线,康新公路,4.979,4.979,121.617199,31.130439,310100024518035,,
上海地铁,地铁11号线,秀沿路,1.984,6.963,121.59839,31.138128,310100024518034,,
上海地铁,地铁11号线,罗山路,1.755,8.718,121.593152,31.153259,310100024518033,,
上海地铁,地铁11号线,御桥,2.184,10.902,121.570914,31.158131,310100024518032,,
上海地铁,地铁11号线,康恒路,1.695,12.597,121.553699,31.154229,310100024518038,,
上海地铁,地铁11号线,浦三路,1.448,14.045,121.539005,31.150861,310100024518031,,
上海地铁,地铁11号线,三林东,1.6,15.645,121.522999,31.146459,310100024518030,,
上海地铁,地铁11号线,三林,1.125,16.77,121.511796,31.143224,310100024518029,,
上海地铁,地铁11号线,东方体育中心,3.202,19.972,121.480304,31.153366,310100024518028,,
上海地铁,地铁11号线,龙耀路,2.084,22.056,121.459702,31.15972,310100024518027,,
上海地铁,地铁11号线,云锦路,0.761,22.817,121.458519,31.166488,310100024518026,,
上海地铁,地铁11号线,龙华,0.868,23.685,121.452958,31.172672,310100024518025,,
上海地铁,地铁11号线,上海游泳馆,1.311,24.996,121.441424,31.179123,310100024518024,,
上海地铁,地铁11号线,徐家汇,1.879,26.875,121.436603,31.195514,310100024518023,,
上海地铁,地铁11号线,交通大学,0.756,27.631,121.435253,31.202213,310100024518022,,
上海地铁,地铁11号线,江苏路,2.07,29.701,121.430642,31.220411,310100024518021,,
上海地铁,地铁11号线,隆德路,1.309,31.01,121.423576,31.230509,310100024518020,,
上海地铁,地铁11号线,曹杨路,1.126,32.136,121.417701,31.239302,310100024518019,,
上海地铁,地铁11号线,枫桥路,0.662,32.798,121.411402,31.24185,310100024518018,,
上海地铁,地铁11号线,真如,1.068,33.866,121.407219,31.250767,310100024518017,,
上海地铁,地铁11号线,上海西站,1.455,35.321,121.400926,31.262693,310100024518016,,
上海地铁,地铁11号线,李子园,1.257,36.578,121.389969,31.26902,310100024518015,,
上海地铁,地铁11号线,祁连山路,1.356,37.934,121.376035,31.27165,310100024518014,,
上海地铁,地铁11号线,武威路,1.214,39.148,121.364678,31.276646,310100024518013,,
上海地铁,地铁11号线,桃浦新村,1.533,40.681,121.349623,31.281603,310100024518012,,
上海地铁,地铁11号线,南翔,3.041,43.722,121.323141,31.296952,310100024518011,,
上海地铁,地铁11号线,陈翔公路,1.881,45.603,121.306787,31.306484,310100024518037,,
上海地铁,地铁11号线,马陆,3.195,48.798,121.276906,31.319675,310100024518010,,
上海地铁,地铁11号线,嘉定新城,2.439,51.237,121.254294,31.330062,310100024518009,,
上海地铁,地铁11号线,上海赛车场,2.686,53.923,121.226098,31.331898,310100024518008,,
上海地铁,地铁11号线,昌吉东路,4.907,58.83,121.200384,31.29362,310100024518007,,
上海地铁,地铁11号线,上海汽车城,2.078,60.908,121.180742,31.285403,310100024518006,,
上海地铁,地铁11号线,安亭,1.815,62.723,121.161985,31.28849,310100024518005,,
上海地铁,地铁11号线,兆丰路,1.111,63.834,121.150315,31.289048,310100024518004,,
上海地铁,地铁11号线,光明路,3.247,67.081,121.117186,31.29621,310100024518003,,
上海地铁,地铁11号线,花桥,1.248,68.329,121.104407,31.29879,310100024518002,,
上海地铁,地铁12号线,七莘路,0.0,0.0,121.362461,31.131634,310100025711033,,
上海地铁,地铁12号线,虹莘路,1.821,1.821,121.380349,31.137452,310100025711032,,
上海地铁,地铁12号线,顾戴路,1.159,2.98,121.39185,31.140888,310100025711031,,
上海地铁,地铁12号线,东兰路,1.661,4.641,121.391919,31.155826,310100025711030,,
上海地铁,地铁12号线,虹梅路,0.714,5.355,121.39725,31.16035,310100025711029,,
上海地铁,地铁12号线,虹漕路,1.33,6.685,121.410553,31.164033,310100025711028,,
上海地铁,地铁12号线,桂林公园,0.925,7.61,121.419647,31.166985,310100025711027,,
上海地铁,地铁12号线,漕宝路,1.293,8.903,121.433143,31.168344,310100025685024,,
上海地铁,地铁12号线,龙漕路,1.077,9.98,121.444383,31.169458,310100025711025,,
上海地铁,地铁12号线,龙华,0.891,10.871,121.452958,31.172672,310100024518025,,
上海地铁,地铁12号线,龙华中路,1.359,12.23,121.457064,31.184379,310100024542012,,
上海地铁,地铁12号线,大木桥路,1.228,13.458,121.463278,31.194057,310100025711022,,
上海地铁,地铁12号线,嘉善路,1.005,14.463,121.460704,31.20282,310100024546020,,
上海地铁,地铁12号线,陕西南路,1.383,15.846,121.458741,31.215148,310100025685019,,
上海地铁,地铁12号线,南京西路,1.639,17.485,121.459971,31.229853,310100024524017,,
上海地铁,地铁12号线,汉中路,1.343,18.828,121.458699,31.241883,310100024524019,,
上海地铁,地铁12号线,曲阜路,1.222,20.05,121.471543,31.242307,310100025709015,,
上海地铁,地铁12号线,天潼路,1.038,21.088,121.482321,31.243815,310100025711016,,
上海地铁,地铁12号线,国际客运中心,1.663,22.751,121.498158,31.25016,310100025711015,,
上海地铁,地铁12号线,提篮桥,0.902,23.653,121.506801,31.253518,310100025711014,,
上海地铁,地铁12号线,大连路,0.774,24.427,121.513088,31.257938,310100025711013,,
上海地铁,地铁12号线,江浦公园,1.249,25.676,121.523697,31.26457,310100025711012,,
上海地铁,地铁12号线,宁国路,0.935,26.611,121.532352,31.268574,310100025711011,,
上海地铁,地铁12号线,隆昌路,1.386,27.997,121.544692,31.275213,310100025711010,,
上海地铁,地铁12号线,爱国路,0.912,28.909,121.552655,31.279788,310100025711009,,
上海地铁,地铁12号线,复兴岛,0.83,29.739,121.561315,31.280779,310100025711008,,
上海地铁,地铁12号线,东陆路,1.704,31.443,121.579124,31.282533,310100025711007,,
上海地铁,地铁12号线,巨峰路,0.902,32.345,121.588365,31.280684,310100024540022,,
上海地铁,地铁12号线,杨高北路,1.389,33.734,121.60296,31.280092,310100025711005,,
上海地铁,地铁12号线,金京路,1.19,34.924,121.615477,31.279823,310100025711004,,
上海地铁,地铁12号线,申江路,1.083,36.007,121.626863,31.280231,310100025711003,,
上海地铁,地铁12号线,金海路,2.205,38.212,121.638629,31.263141,310100024546033,,
上海地铁,地铁13号线,金运路,0.0,0.0,121.319308,31.240986,310100024524008,,
上海地铁,地铁13号线,金沙江西路,1.507,1.507,121.335156,31.241152,310100024524007,,
上海地铁,地铁13号线,丰庄,1.906,3.413,121.355141,31.242553,310100024524006,,
上海地铁,地铁13号线,祁连山南路,1.277,4.69,121.367275,31.237625,310100024524005,,
上海地铁,地铁13号线,真北路,1.518,6.208,121.381948,31.232235,310100024524004,,
上海地铁,地铁13号线,大渡河路,1.188,7.396,121.394431,31.231752,310100024524003,,
上海地铁,地铁13号线,金沙江路,1.785,9.181,121.413201,31.232147,310100024524002,,
上海地铁,地铁13号线,隆德路,1.003,10.184,121.423576,31.230509,310100024518020,,
上海地铁,地铁13号线,武宁路,0.785,10.969,121.430504,31.234346,310100024524010,,
上海地铁,地铁13号线,长寿路,1.034,12.003,121.438272,31.24086,310100024524009,,
上海地铁,地铁13号线,江宁路,0.73,12.733,121.44483,31.244282,310100024524020,,
上海地铁,地铁13号线,汉中路,1.345,14.078,121.458699,31.241883,310100024524019,,
上海地铁,地铁13号线,自然博物馆,0.697,14.775,121.462366,31.236451,310100024524018,,
上海地铁,地铁13号线,南京西路,0.768,15.543,121.459971,31.229853,310100024524017,,
上海地铁,地铁13号线,淮海中路,1.167,16.71,121.464363,31.220056,310100024524016,,
上海地铁,地铁13号线,一大会址·新天地,1.108,17.818,121.475182,31.216367,310100024524015,,
上海地铁,地铁13号线,马当路,0.786,18.604,121.477256,31.20952,310100024524014,,
上海地铁,地铁13号线,世博会博物馆,1.391,19.995,121.481592,31.197572,310100024524013,,
上海地铁,地铁13号线,世博大道,1.664,21.659,121.484313,31.182789,310100024524012,,
上海地铁,地铁13号线,长清路,0.984,22.643,121.487775,31.174452,310100024524032,,
上海地铁,地铁13号线,成山路,0.904,23.547,121.49622,31.170735,310100024524031,,
上海地铁,地铁13号线,东明路,1.41,24.957,121.510868,31.172646,310100024524030,,
上海地铁,地铁13号线,华鹏路,1.547,26.504,121.526567,31.176276,310100024524029,,
上海地铁,地铁13号线,下南路,1.339,27.843,121.540189,31.179295,310100024524028,,
上海地铁,地铁13号线,北蔡,1.129,28.972,121.552017,31.180131,310100024524027,,
上海地铁,地铁13号线,陈春路,0.812,29.784,121.558194,31.175095,310100024524026,,
上海地铁,地铁13号线,莲溪路,1.027,30.811,121.566414,31.16911,310100024524025,,
上海地铁,地铁13号线,华夏中路,1.752,32.563,121.583109,31.175759,310100024524024,,
上海地铁,地铁13号线,中科路,1.873,34.436,121.602465,31.178862,310100024524023,,
上海地铁,地铁13号线,学林路,1.243,35.679,121.614363,31.183476,310100024524022,,
上海地铁,地铁13号线,张江路,1.544,37.223,121.629182,31.18913,310100024524021,,
上海地铁,地铁14号线,封浜,0.0,0.0,121.297006,31.267488,310100027599002,,
上海地铁,地铁14号线,乐秀路,1.642,1.642,121.314103,31.265363,310100027599003,,
上海地铁,地铁14号线,临洮路,1.613,3.255,121.33086,31.263059,310100027599004,,
上海地铁,地铁14号线,嘉怡路,1.474,4.729,121.345697,31.259195,310100027599005,,
上海地铁,地铁14号线,定边路,1.618,6.347,121.362396,31.256392,310100027599006,,
上海地铁,地铁14号线,真新新村,0.913,7.26,121.371949,31.255566,310100027599007,,
上海地铁,地铁14号线,真光路,1.188,8.448,121.384162,31.253278,310100027599008,,
上海地铁,地铁14号线,铜川路,1.256,9.704,121.397036,31.250733,310100027599009,,
上海地铁,地铁14号线,真如,0.968,10.672,121.407219,31.250767,310100024518017,,
上海地铁,地铁14号线,中宁路,0.942,11.614,121.414541,31.245059,310100027599011,,
上海地铁,地铁14号线,曹杨路,0.707,12.321,121.417701,31.239302,310100024518019,,
上海地铁,地铁14号线,武宁路,1.336,13.657,121.430504,31.234346,310100024524010,,
上海地铁,地铁14号线,武定路,0.95,14.607,121.436157,31.227303,310100027599013,,
上海地铁,地铁14号线,静安寺,1.086,15.693,121.446533,31.223231,310100024542016,,
上海地铁,地铁14号线,一大会址·黄陂南路,2.509,18.202,121.472904,31.223898,310100025685018,,
上海地铁,地铁14号线,大世界,0.712,18.914,121.479182,31.227392,310100025709017,,
上海地铁,地铁14号线,豫园,0.787,19.701,121.487426,31.228005,310100027599018,,
上海地铁,地铁14号线,陆家嘴,1.804,21.505,121.502129,31.238259,310100025693010,,
上海地铁,地铁14号线,浦东南路,0.978,22.483,121.512412,31.238532,310100027599020,,
上海地铁,地铁14号线,浦东大道,0.684,23.167,121.519302,31.240308,310100027599021,,
上海地铁,地铁14号线,源深路,1.119,24.286,121.531016,31.241318,310100027599022,,
上海地铁,地铁14号线,昌邑路,0.912,25.198,121.540104,31.24394,310100027599023,,
上海地铁,地铁14号线,歇浦路,1.321,26.519,121.551506,31.250728,310100027599024,,
上海地铁,地铁14号线,云山路,1.868,28.387,121.571153,31.250969,310100024540018,,
上海地铁,地铁14号线,蓝天路,1.283,29.67,121.577995,31.241028,310100024546029,,
上海地铁,地铁14号线,黄杨路,1.464,31.134,121.591014,31.233998,310100027599028,,
上海地铁,地铁14号线,云顺路,0.95,32.084,121.600336,31.237064,310100027599029,,
上海地铁,地铁14号线,浦东足球场,1.523,33.607,121.61543,31.241645,310100027599030,,
上海地铁,地铁14号线,金粤路,1.293,34.9,121.629016,31.242092,310100027599031,,
上海地铁,地铁14号线,桂桥路,0.998,35.898,121.635087,31.249419,310100027599032,,
上海地铁,地铁15号线,顾村公园,0.0,0.0,121.373009,31.344594,310100024542030,,
上海地铁,地铁15号线,锦秋路,2.839,2.839,121.381765,31.320184,900000070795002,,
上海地铁,地铁15号线,丰翔路,1.333,4.172,121.380872,31.308218,900000070795003,,
上海地铁,地铁15号线,南大路,0.997,5.169,121.380346,31.299263,900000070795004,,
上海地铁,地铁15号线,祁安路,0.956,6.125,121.384813,31.291558,900000070795005,,
上海地铁,地铁15号线,古浪路,1.053,7.178,121.392217,31.284509,900000070795006,,
上海地铁,地铁15号线,武威东路,0.985,8.163,121.392094,31.275647,900000070795007,,
上海地铁,地铁15号线,上海西站,1.667,9.83,121.400926,31.262693,310100024518016,,
上海地铁,地铁15号线,铜川路,1.38,11.21,121.397036,31.250733,310100027599009,,
上海地铁,地铁15号线,梅岭北路,0.826,12.036,121.396997,31.243301,900000070795010,,
上海地铁,地铁15号线,大渡河路,1.307,13.343,121.394431,31.231752,310100024524003,,
上海地铁,地铁15号线,长风公园,0.745,14.088,121.39632,31.225254,900000070795012,,
上海地铁,地铁15号线,娄山关路,1.732,15.82,121.404058,31.211158,310100025693017,,
上海地铁,地铁15号线,红宝石路,1.47,17.29,121.398372,31.198863,900000070795014,,
上海地铁,地铁15号线,姚虹路,1.116,18.406,121.406405,31.19155,900000070795015,,
上海地铁,地铁15号线,吴中路,1.073,19.479,121.413905,31.184345,900000070795016,,
上海地铁,地铁15号线,桂林路,1.134,20.613,121.418064,31.174791,310100024546016,,
上海地铁,地铁15号线,桂林公园,0.881,21.494,121.419647,31.166985,310100025711027,,
上海地铁,地铁15号线,上海南站,1.697,23.191,121.430041,31.154579,310100025685025,,
上海地铁,地铁15号线,华东理工大学,1.152,24.343,121.42899,31.144257,900000070795020,,
上海地铁,地铁15号线,罗秀路,1.555,25.898,121.435806,31.131552,900000070795021,,
上海地铁,地铁15号线,朱梅路,0.822,26.72,121.437804,31.124364,900000070795022,,
上海地铁,地铁15号线,景洪路,1.732,28.452,121.44431,31.109817,900000070795023,,
上海地铁,地铁15号线,虹梅南路,1.261,29.713,121.433059,31.103839,900000070795024,,
上海地铁,地铁15号线,景西路,1.436,31.149,121.41876,31.099727,900000070795025,,
上海地铁,地铁15号线,曙建路,1.015,32.164,121.417897,31.090625,900000070795026,,
上海地铁,地铁15号线,双柏路,0.902,33.066,121.42175,31.083214,900000070795027,,
上海地铁,地铁15号线,元江路,2.466,35.532,121.431901,31.062815,900000070795028,,
上海地铁,地铁15号线,永德路,2.843,38.375,121.443203,31.039147,900000070795029,,
上海地铁,地铁15号线,紫竹高新区,1.932,40.307,121.451221,31.02319,900000070795030,,
上海地铁,地铁16号线,龙阳路,0.0,0.0,121.557634,31.203575,310100024526014,,
上海地铁,地铁16号线,华夏中路,3.929,3.929,121.583109,31.175759,310100024524024,,
上海地铁,地铁16号线,罗山路,2.678,6.607,121.593152,31.153259,310100024518033,,
上海地铁,地铁16号线,周浦东,4.981,11.588,121.606895,31.110038,310100024526011,,
上海地铁,地铁16号线,鹤沙航城,3.609,15.197,121.611239,31.077797,310100024526010,,
上海地铁,地铁16号线,航头东,2.613,17.81,121.617494,31.054919,310100024526009,,
上海地铁,地铁16号线,新场,3.175,20.985,121.64898,31.045561,310100024526008,,
上海地铁,地铁16号线,野生动物园,4.815,25.8,121.699218,31.050325,310100024526007,,
上海地铁,地铁16号线,惠南,5.963,31.763,121.761677,31.053828,310100024526006,,
上海地铁,地铁16号线,惠南东,4.317,36.08,121.7938,31.026448,310100024526005,,
上海地铁,地铁16号线,书院,9.222,45.302,121.85052,30.959264,310100024526004,,
上海地铁,地铁16号线,临港大道,6.993,52.295,121.910851,30.923519,310100024526003,,
上海地铁,地铁16号线,滴水湖,2.543,54.838,121.929583,30.907245,310100024526002,,
上海地铁,地铁17号线,虹桥火车站,0.0,0.0,121.31895,31.194022,310100025693022,,
上海地铁,地铁17号线,国家会展中心(17号线),2.478,2.478,121.29304,31.191678,900000039799012,,
上海地铁,地铁17号线,蟠龙路,1.493,3.971,121.278645,31.186328,900000039799011,,
上海地铁,地铁17号线,徐盈路,2.519,6.49,121.253976,31.178101,900000039799010,,
上海地铁,地铁17号线,徐泾北城,1.206,7.696,121.241668,31.175518,900000039799009,,
上海地铁,地铁17号线,嘉松中路,2.113,9.809,121.223916,31.164099,900000039799008,,
上海地铁,地铁17号线,赵巷,3.027,12.836,121.192279,31.161247,900000039799007,,
上海地铁,地铁17号线,汇金路,3.864,16.7,121.151665,31.161221,900000039799006,,
上海地铁,地铁17号线,青浦新城,2.487,19.187,121.12567,31.158925,900000039799005,,
上海地铁,地铁17号线,漕盈路,2.744,21.931,121.096889,31.160467,900000039799004,,
上海地铁,地铁17号线,淀山湖大道,3.215,25.146,121.082134,31.13446,900000039799003,,
上海地铁,地铁17号线,朱家角,4.913,30.059,121.048989,31.100594,900000039799002,,
上海地铁,地铁17号线,东方绿舟,2.814,32.873,121.019534,31.098544,900000039799001,,
上海地铁,地铁17号线,西岑,6.124,38.997,120.964163,31.070526,900000039799014,,
上海地铁,地铁18号线一期南段,康文路,0.0,0.0,121.419328,31.335319,900000059773045,,
上海地铁,地铁18号线一期南段,呼兰路,1.813,1.813,121.437711,31.339703,310100025685006,,
上海地铁,地铁18号线一期南段,爱辉路,1.209,3.022,121.449331,31.344152,900000059773047,,
上海地铁,地铁18号线一期南段,长江西路,2.469,5.491,121.475263,31.345771,900000059773049,,
上海地铁,地铁18号线一期南段,通南路,0.991,6.482,121.479637,31.337677,900000059773050,,
上海地铁,地铁18号线一期南段,长江南路,1.287,7.769,121.491482,31.332062,310100034534010,,
上海地铁,地铁18号线一期南段,殷高路,1.215,8.984,121.49556,31.321705,900000059773028,,
上海地铁,地铁18号线一期南段,上海财经大学,1.562,10.546,121.496332,31.307672,900000059773029,,
上海地铁,地铁18号线一期南段,复旦大学,1.295,11.841,121.499529,31.296349,900000059773030,,
上海地铁,地铁18号线一期南段,国权路,1.27,13.111,121.510024,31.289276,310100027703023,,
上海地铁,地铁18号线一期南段,抚顺路,0.831,13.942,121.515793,31.283664,900000059773032,,
上海地铁,地铁18号线一期南段,江浦路,1.0,14.942,121.518379,31.274946,310100025709008,,
上海地铁,地铁18号线一期南段,江浦公园,1.26,16.202,121.523697,31.26457,310100025711012,,
上海地铁,地铁18号线一期南段,平凉路,0.678,16.88,121.526701,31.259038,900000059773035,,
上海地铁,地铁18号线一期南段,丹阳路,0.719,17.599,121.53116,31.253815,900000059773036,,
上海地铁,地铁18号线一期南段,昌邑路,1.389,18.988,121.540104,31.24394,310100027599023,,
上海地铁,地铁18号线一期南段,民生路,0.957,19.945,121.543527,31.235851,310100024540015,,
上海地铁,地铁18号线一期南段,杨高中路,1.048,20.993,121.548664,31.22751,310100024546027,,
上海地铁,地铁18号线一期南段,迎春路,0.757,21.75,121.550998,31.221002,900000059773040,,
上海地铁,地铁18号线一期南段,龙阳路,2.038,23.788,121.557634,31.203575,310100024526014,,
上海地铁,地铁18号线一期南段,芳芯路,1.389,25.177,121.559226,31.191158,900000059773042,,
上海地铁,地铁18号线一期南段,北中路,0.955,26.132,121.561355,31.182762,900000059773043,,
上海地铁,地铁18号线一期南段,莲溪路,1.593,27.725,121.566414,31.16911,310100024524025,,
上海地铁,地铁18号线一期南段,御桥,1.294,29.019,121.570914,31.158131,310100024518032,,
上海地铁,地铁18号线一期南段,康桥,2.679,31.698,121.567306,31.134239,900000059773020,,
上海地铁,地铁18号线一期南段,周浦,2.236,33.934,121.567613,31.114129,900000059773021,,
上海地铁,地铁18号线一期南段,繁荣路,1.317,35.251,121.570547,31.102554,900000059773022,,
上海地铁,地铁18号线一期南段,沈梅路,1.591,36.842,121.580589,31.091115,900000059773023,,
上海地铁,地铁18号线一期南段,鹤涛路,2.201,39.043,121.58596,31.07186,900000059773024,,
上海地铁,地铁18号线一期南段,下沙,1.963,41.006,121.588988,31.054396,900000059773025,,
上海地铁,地铁18号线一期南段,航头,2.017,43.023,121.596083,31.037305,900000059773026,,
上海地铁,地铁1号线,莘庄,0.0,0.0,121.385373,31.111152,310100025685029,,
上海地铁,地铁1号线,外环路,1.306,1.306,121.39302,31.120899,310100025685028,,
上海地铁,地铁1号线,莲花路,1.457,2.763,121.40291,31.1309,310100025685027,,
上海地铁,地铁1号线,锦江乐园,1.649,4.412,121.414107,31.142217,310100025685026,,
上海地铁,地铁1号线,上海南站,2.047,6.459,121.430041,31.154579,310100025685025,,
上海地铁,地铁1号线,漕宝路,1.559,8.018,121.433143,31.168344,310100025685024,,
上海地铁,地铁1号线,上海体育馆,1.66,9.678,121.437423,31.182813,310100025685023,,
上海地铁,地铁1号线,徐家汇,1.414,11.092,121.436603,31.195514,310100024518023,,
上海地铁,地铁1号线,衡山路,1.37,12.462,121.446424,31.204528,310100025685021,,
上海地铁,地铁1号线,常熟路,1.033,13.495,121.449141,31.213524,310100024542015,,
上海地铁,地铁1号线,陕西南路,0.931,14.426,121.458741,31.215148,310100025685019,,
上海地铁,地铁1号线,一大会址·黄陂南路,1.661,16.087,121.472904,31.223898,310100025685018,,
上海地铁,地铁1号线,人民广场,1.0,17.087,121.475108,31.232687,310100025685017,,
上海地铁,地铁1号线,新闸路,0.915,18.002,121.468151,31.238373,310100025685016,,
上海地铁,地铁1号线,汉中路,0.98,18.982,121.458699,31.241883,310100024524019,,
上海地铁,地铁1号线,上海火车站,0.865,19.847,121.457939,31.249632,310100025685014,,
上海地铁,地铁1号线,中山北路,1.037,20.884,121.459204,31.258891,310100025685013,,
上海地铁,地铁1号线,延长路,1.468,22.352,121.455329,31.271675,310100025685012,,
上海地铁,地铁1号线,上海马戏城,0.967,23.319,121.452023,31.279895,310100025685011,,
上海地铁,地铁1号线,汶水路,1.418,24.737,121.450251,31.292556,310100025685010,,
上海地铁,地铁1号线,彭浦新村,1.57,26.307,121.448642,31.306604,310100025685009,,
上海地铁,地铁1号线,共康路,1.379,27.686,121.447063,31.318936,310100025685008,,
上海地铁,地铁1号线,通河新村,1.454,29.14,121.441546,31.33113,310100025685007,,
上海地铁,地铁1号线,呼兰路,1.02,30.16,121.437711,31.339703,310100025685006,,
上海地铁,地铁1号线,共富新村,1.745,31.905,121.434063,31.355082,310100025685005,,
上海地铁,地铁1号线,宝安公路,1.637,33.542,121.430914,31.369555,310100025685004,,
上海地铁,地铁1号线,友谊西路,1.335,34.877,121.427953,31.381296,310100025685003,,
上海地铁,地铁1号线,富锦路,1.259,36.136,121.424661,31.39226,310100025685002,,
上海地铁,地铁2号线,浦东1号2号航站楼,0.0,0.0,121.805591,31.150958,310100025693024,,
上海地铁,地铁2号线,海天三路,2.115,2.115,121.796878,31.168459,310100025693025,,
上海地铁,地铁2号线,远东大道,5.241,7.356,121.755301,31.199385,310100025693026,,
上海地铁,地铁2号线,凌空路,3.056,10.412,121.724095,31.192861,310100025693027,,
上海地铁,地铁2号线,川沙,2.555,12.967,121.69821,31.186741,310100025693028,,
上海地铁,地铁2号线,华夏东路,1.971,14.938,121.680972,31.196575,310100025693029,,
上海地铁,地铁2号线,创新中路,2.043,16.981,121.673713,31.213871,310100025693030,,
上海地铁,地铁2号线,唐镇,1.659,18.64,121.656269,31.214107,310100025693031,,
上海地铁,地铁2号线,广兰路,3.364,22.004,121.621072,31.21105,310100025693002,,
上海地铁,地铁2号线,金科路,1.968,23.972,121.601989,31.204213,310100025693003,,
上海地铁,地铁2号线,张江高科,1.403,25.375,121.58749,31.201872,310100025693004,,
上海地铁,地铁2号线,龙阳路,2.846,28.221,121.557634,31.203575,310100024526014,,
上海地铁,地铁2号线,世纪公园,0.912,29.133,121.550909,31.209421,310100025693006,,
上海地铁,地铁2号线,上海科技馆,1.213,30.346,121.544439,31.21882,310100025693007,,
上海地铁,地铁2号线,世纪大道,1.971,32.317,121.527213,31.228682,310100024540013,,
上海地铁,地铁2号线,浦东南路(原东昌路),1.22,33.537,121.515556,31.23327,310100025693009,,
上海地铁,地铁2号线,陆家嘴,1.392,34.929,121.502129,31.238259,310100025693010,,
上海地铁,地铁2号线,南京东路,1.664,36.593,121.484628,31.238101,310100025693011,,
上海地铁,地铁2号线,人民广场,1.087,37.68,121.475108,31.232687,310100025685017,,
上海地铁,地铁2号线,南京西路,1.473,39.153,121.459971,31.229853,310100024524017,,
上海地铁,地铁2号线,静安寺,1.475,40.628,121.446533,31.223231,310100024542016,,
上海地铁,地铁2号线,江苏路,1.543,42.171,121.430642,31.220411,310100024518021,,
上海地铁,地铁2号线,中山公园,1.44,43.611,121.415773,31.217948,310100025693016,,
上海地铁,地铁2号线,娄山关路,1.346,44.957,121.404058,31.211158,310100025693017,,
上海地铁,地铁2号线,威宁路,1.648,46.605,121.387285,31.21487,310100025693018,,
上海地铁,地铁2号线,北新泾,1.275,47.88,121.373998,31.216395,310100025693019,,
上海地铁,地铁2号线,淞虹路,1.39,49.27,121.359536,31.218225,310100025693020,,
上海地铁,地铁2号线,虹桥2号航站楼,4.285,53.555,121.324443,31.194055,310100025693021,,
上海地铁,地铁2号线,虹桥火车站,0.522,54.077,121.31895,31.194022,310100025693022,,
上海地铁,地铁2号线,国家会展中心(2号线),1.981,56.058,121.299204,31.188367,310100025693023,,
上海地铁,地铁2号线,蟠祥路·国家会计学院,1.465,57.523,121.286143,31.181388,310100025693032,,
上海地铁,地铁3号线,江杨北路,0.0,0.0,121.439819,31.407858,310100034534002,,
上海地铁,地铁3号线,铁力路,2.024,2.024,121.461139,31.40812,310100034534003,,
上海地铁,地铁3号线,友谊路,1.476,3.5,121.475924,31.404016,310100034534004,,
上海地铁,地铁3号线,宝杨路,1.028,4.528,121.479574,31.395315,310100034534005,,
上海地铁,地铁3号线,水产路,1.762,6.29,121.488247,31.381302,310100034534006,,
上海地铁,地铁3号线,淞滨路,1.232,7.522,121.492818,31.370928,310100034534007,,
上海地铁,地铁3号线,张华浜,1.54,9.062,121.498671,31.358016,310100034534008,,
上海地铁,地铁3号线,淞发路,1.442,10.504,121.50039,31.345135,310100034534009,,
上海地铁,地铁3号线,长江南路,1.682,12.186,121.491482,31.332062,310100034534010,,
上海地铁,地铁3号线,殷高西路,1.481,13.667,121.484856,31.320005,310100034534011,,
上海地铁,地铁3号线,江湾镇,1.606,15.273,121.485064,31.305566,310100034534012,,
上海地铁,地铁3号线,大柏树,1.802,17.075,121.483216,31.289433,310100034534013,,
上海地铁,地铁3号线,赤峰路,0.913,17.988,121.482429,31.281247,310100034534014,,
上海地铁,地铁3号线,虹口足球场,1.139,19.127,121.479154,31.271392,310100025709012,,
上海地铁,地铁3号线,东宝兴路,1.283,20.41,121.480202,31.259886,310100034534016,,
上海地铁,地铁3号线,宝山路,1.001,21.411,121.476298,31.251523,310100034534017,,
上海地铁,地铁3号线,上海火车站,1.758,23.169,121.457939,31.249632,310100025685014,,
上海地铁,地铁3号线,中潭路,1.701,24.87,121.441001,31.254568,310100034534019,,
上海地铁,地铁3号线,镇坪路,1.403,26.273,121.429779,31.246369,310100024542019,,
上海地铁,地铁3号线,曹杨路,1.391,27.664,121.417701,31.239302,310100024518019,,
上海地铁,地铁3号线,金沙江路,0.903,28.567,121.413201,31.232147,310100024524002,,
上海地铁,地铁3号线,中山公园,1.598,30.165,121.415773,31.217948,310100025693016,,
上海地铁,地铁3号线,延安西路,0.935,31.1,121.417062,31.209616,310100034534024,,
上海地铁,地铁3号线,虹桥路,1.391,32.491,121.420814,31.197524,310100027703009,,
上海地铁,地铁3号线,宜山路,1.346,33.837,121.427194,31.186717,310100024546017,,
上海地铁,地铁3号线,漕溪路,1.539,35.376,121.43841,31.176746,310100034534027,,
上海地铁,地铁3号线,龙漕路,0.99,36.366,121.444383,31.169458,310100025711025,,
上海地铁,地铁3号线,石龙路,1.285,37.651,121.443205,31.157949,310100034534029,,
上海地铁,地铁3号线,上海南站,1.307,38.958,121.430041,31.154579,310100025685025,,
上海地铁,地铁4号线,宜山路,0.0,0.0,121.427194,31.186717,310100024546017,,
上海地铁,地铁4号线,虹桥路,1.346,1.346,121.420814,31.197524,310100027703009,,
上海地铁,地铁4号线,延安西路,1.391,2.737,121.417062,31.209616,310100034534024,,
上海地铁,地铁4号线,中山公园,0.935,3.672,121.415773,31.217948,310100025693016,,
上海地铁,地铁4号线,金沙江路,1.598,5.27,121.413201,31.232147,310100024524002,,
上海地铁,地铁4号线,曹杨路,0.903,6.173,121.417701,31.239302,310100024518019,,
上海地铁,地铁4号线,镇坪路,1.391,7.564,121.429779,31.246369,310100024542019,,
上海地铁,地铁4号线,中潭路,1.403,8.967,121.441001,31.254568,310100034534019,,
上海地铁,地铁4号线,上海火车站,1.701,10.668,121.457939,31.249632,310100025685014,,
上海地铁,地铁4号线,宝山路,1.758,12.426,121.476298,31.251523,310100034534017,,
上海地铁,地铁4号线,海伦路,1.462,13.888,121.488697,31.259303,310100027703019,,
上海地铁,地铁4号线,临平路,1.154,15.042,121.500696,31.260874,310100034536013,,
上海地铁,地铁4号线,大连路,1.222,16.264,121.513088,31.257938,310100025711013,,
上海地铁,地铁4号线,杨树浦路,0.774,17.038,121.51721,31.251935,310100034536015,,
上海地铁,地铁4号线,浦东大道,1.308,18.346,121.519302,31.240308,310100027599021,,
上海地铁,地铁4号线,世纪大道,1.496,19.842,121.527213,31.228682,310100024540013,,
上海地铁,地铁4号线,向城路,0.849,20.691,121.53208,31.222285,310100034536018,,
上海地铁,地铁4号线,蓝村路,1.254,21.945,121.527627,31.211672,310100024540011,,
上海地铁,地铁4号线,塘桥,0.876,22.821,121.51869,31.209762,310100034536020,,
上海地铁,地铁4号线,南浦大桥,1.809,24.63,121.499725,31.208504,310100034536021,,
上海地铁,地铁4号线,西藏南路,1.21,25.84,121.489555,31.201967,310100025709020,,
上海地铁,地铁4号线,鲁班路,1.404,27.244,121.475148,31.199221,310100034536023,,
上海地铁,地铁4号线,大木桥路,1.267,28.511,121.463278,31.194057,310100025711022,,
上海地铁,地铁4号线,东安路,0.875,29.386,121.454897,31.190819,310100024542013,,
上海地铁,地铁4号线,上海体育场,1.227,30.613,121.443529,31.185605,310100034536026,,
上海地铁,地铁4号线,上海体育馆,0.659,31.272,121.437423,31.182813,310100025685023,,
上海地铁,地铁4号线,宜山路(闭环回起点),1.066,32.338,121.427194,31.186717,310100024546017,,
上海地铁,地铁5号线,莘庄,0.0,0.0,121.385373,31.111152,310100025685029,,
上海地铁,地铁5号线,春申路,1.435,1.435,121.385818,31.09825,310100034538014,,
上海地铁,地铁5号线,银都路,1.077,2.512,121.390264,31.089345,310100034538015,,
上海地铁,地铁5号线,颛桥,2.718,5.23,121.401868,31.067013,310100034538016,,
上海地铁,地铁5号线,北桥,2.557,7.787,121.410054,31.045112,310100034538017,,
上海地铁,地铁5号线,剑川路,2.163,9.95,121.416582,31.026483,310100034538018,,
上海地铁,地铁5号线,东川路,0.974,10.924,121.419901,31.018197,310100034538008,,
上海地铁,地铁5号线,江川路,1.46,12.384,121.423474,31.005428,900000059516002,,
上海地铁,地铁5号线,西渡,1.982,14.366,121.432441,30.98935,900000059516003,,
上海地铁,地铁5号线,萧塘,2.759,17.125,121.441857,30.965888,900000059516004,,
上海地铁,地铁5号线,奉浦大道,2.736,19.861,121.448984,30.942055,900000059516005,,
上海地铁,地铁5号线,环城东路,1.818,21.679,121.463204,30.931168,900000059516006,,
上海地铁,地铁5号线,望园路,1.945,23.624,121.48358,30.93194,900000059516007,,
上海地铁,地铁5号线,金海湖,0.92,24.544,121.492506,30.928805,900000059516008,,
上海地铁,地铁5号线,奉贤新城,1.694,26.238,121.49629,30.913916,900000059516009,,
上海地铁,地铁6号线,东方体育中心,0.0,0.0,121.480304,31.153366,310100024518028,,
上海地铁,地铁6号线,灵岩南路,1.519,1.519,121.495295,31.148665,310100024540003,,
上海地铁,地铁6号线,上南路,1.061,2.58,121.506447,31.14882,310100024540004,,
上海地铁,地铁6号线,华夏西路,0.779,3.359,121.514539,31.149878,310100024540005,,
上海地铁,地铁6号线,高青路,1.121,4.48,121.515787,31.159907,310100024540006,,
上海地铁,地铁6号线,东明路,1.492,5.972,121.510868,31.172646,310100024524030,,
上海地铁,地铁6号线,高科西路,1.462,7.434,121.509845,31.185761,310100024540008,,
上海地铁,地铁6号线,临沂新村,1.053,8.487,121.516695,31.193202,310100024540009,,
上海地铁,地铁6号线,上海儿童医学中心,1.293,9.78,121.523482,31.203277,310100024540010,,
上海地铁,地铁6号线,蓝村路,1.013,10.793,121.527627,31.211672,310100024540011,,
上海地铁,地铁6号线,浦电路,0.957,11.75,121.529351,31.220154,310100024540012,,
上海地铁,地铁6号线,世纪大道,0.97,12.72,121.527213,31.228682,310100024540013,,
上海地铁,地铁6号线,源深体育中心,0.854,13.574,121.534642,31.233004,310100024540014,,
上海地铁,地铁6号线,民生路,0.902,14.476,121.543527,31.235851,310100024540015,,
上海地铁,地铁6号线,北洋泾路,0.912,15.388,121.552314,31.239145,310100024540016,,
上海地铁,地铁6号线,德平路,1.33,16.718,121.564237,31.2454,310100024540017,,
上海地铁,地铁6号线,云山路,0.903,17.621,121.571153,31.250969,310100024540018,,
上海地铁,地铁6号线,金桥路,1.221,18.842,121.581817,31.257084,310100024540019,,
上海地铁,地铁6号线,博兴路,0.852,19.694,121.586689,31.26352,310100024540020,,
上海地铁,地铁6号线,五莲路,0.952,20.646,121.587866,31.272025,310100024540021,,
上海地铁,地铁6号线,巨峰路,0.964,21.61,121.588365,31.280684,310100024540022,,
上海地铁,地铁6号线,东靖路,1.113,22.723,121.588736,31.290684,310100024540023,,
上海地铁,地铁6号线,五洲大道,1.322,24.045,121.589212,31.302569,310100024540024,,
上海地铁,地铁6号线,洲海路,1.074,25.119,121.589396,31.312229,310100024540025,,
上海地铁,地铁6号线,外高桥保税区南,1.583,26.702,121.601963,31.321578,310100024540026,,
上海地铁,地铁6号线,航津路,1.711,28.413,121.593974,31.335371,310100024540027,,
上海地铁,地铁6号线,外高桥保税区北,1.536,29.949,121.586926,31.347802,310100024540028,,
上海地铁,地铁6号线,港城路,1.282,31.231,121.575017,31.353223,310100024540029,,
上海地铁,地铁7号线,花木路,0.0,0.0,121.562754,31.211212,310100024542002,,
上海地铁,地铁7号线,龙阳路,0.979,0.979,121.557634,31.203575,310100024526014,,
上海地铁,地铁7号线,芳华路,1.366,2.345,121.550115,31.19311,310100024542004,,
上海地铁,地铁7号线,锦绣路,1.138,3.483,121.540041,31.187592,310100024542005,,
上海地铁,地铁7号线,杨高南路,1.475,4.958,121.524539,31.187613,310100024542006,,
上海地铁,地铁7号线,高科西路,1.413,6.371,121.509845,31.185761,310100024540008,,
上海地铁,地铁7号线,云台路,0.978,7.349,121.500439,31.182212,310100024542008,,
上海地铁,地铁7号线,耀华路,0.691,8.04,121.494605,31.178513,310100024542009,,
上海地铁,地铁7号线,长清路,0.791,8.831,121.487775,31.174452,310100024524032,,
上海地铁,地铁7号线,后滩,1.363,10.194,121.473756,31.171918,310100024542011,,
上海地铁,地铁7号线,龙华中路,2.108,12.302,121.457064,31.184379,310100024542012,,
上海地铁,地铁7号线,东安路,0.745,13.047,121.454897,31.190819,310100024542013,,
上海地铁,地铁7号线,肇嘉浜路,1.057,14.104,121.450212,31.199436,310100024542014,,
上海地铁,地铁7号线,常熟路,1.57,15.674,121.449141,31.213524,310100024542015,,
上海地铁,地铁7号线,静安寺,1.107,16.781,121.446533,31.223231,310100024542016,,
上海地铁,地铁7号线,昌平路,1.227,18.008,121.442617,31.233749,310100024542017,,
上海地铁,地铁7号线,长寿路,0.892,18.9,121.438272,31.24086,310100024524009,,
上海地铁,地铁7号线,镇坪路,1.013,19.913,121.429779,31.246369,310100024542019,,
上海地铁,地铁7号线,岚皋路,1.323,21.236,121.421939,31.256198,310100024542020,,
上海地铁,地铁7号线,新村路,0.854,22.09,121.422668,31.263855,310100024542021,,
上海地铁,地铁7号线,大华三路,1.134,23.224,121.422949,31.274047,310100024542022,,
上海地铁,地铁7号线,行知路,1.167,24.391,121.42177,31.284496,310100024542023,,
上海地铁,地铁7号线,大场镇,1.111,25.502,121.416157,31.293259,310100024542024,,
上海地铁,地铁7号线,场中路,1.187,26.689,121.413458,31.303682,310100024542025,,
上海地铁,地铁7号线,上大路,1.334,28.023,121.408686,31.314969,310100024542026,,
上海地铁,地铁7号线,南陈路,1.232,29.255,121.398419,31.32174,310100024542027,,
上海地铁,地铁7号线,上海大学,0.915,30.17,121.388884,31.320586,310100024542028,,
上海地铁,地铁7号线,祁华路,1.472,31.642,121.373529,31.322388,310100024542029,,
上海地铁,地铁7号线,顾村公园,2.47,34.112,121.373009,31.344594,310100024542030,,
上海地铁,地铁7号线,刘行,1.763,35.875,121.362376,31.357586,310100024542031,,
上海地铁,地铁7号线,潘广路,0.96,36.835,121.355845,31.364182,310100024542032,,
上海地铁,地铁7号线,罗南新村,2.745,39.58,121.35747,31.388831,310100024542033,,
上海地铁,地铁7号线,美兰湖,1.62,41.2,121.349894,31.401889,310100024542034,,
上海地铁,地铁8号线,沈杜公路,0.0,0.0,121.512272,31.061427,310100025709031,,
上海地铁,地铁8号线,联航路,1.359,1.359,121.510594,31.073567,310100025709030,,
上海地铁,地铁8号线,江月路,1.203,2.562,121.508603,31.084253,310100025709029,,
上海地铁,地铁8号线,浦江镇,1.39,3.952,121.506272,31.09659,310100025709028,,
上海地铁,地铁8号线,芦恒路,2.613,6.565,121.49826,31.11907,310100025709027,,
上海地铁,地铁8号线,凌兆新村,2.604,9.169,121.489663,31.141301,310100025709026,,
上海地铁,地铁8号线,东方体育中心,1.61,10.779,121.480304,31.153366,310100024518028,,
上海地铁,地铁8号线,杨思,1.515,12.294,121.493443,31.161054,310100025709024,,
上海地铁,地铁8号线,成山路,1.108,13.402,121.49622,31.170735,310100024524031,,
上海地铁,地铁8号线,耀华路,0.878,14.28,121.494605,31.178513,310100024542009,,
上海地铁,地铁8号线,中华艺术宫,0.754,15.034,121.493626,31.185242,310100025709021,,
上海地铁,地铁8号线,西藏南路,1.9,16.934,121.489555,31.201967,310100025709020,,
上海地铁,地铁8号线,陆家浜路,1.14,18.074,121.486115,31.211789,310100024546023,,
上海地铁,地铁8号线,老西门,0.833,18.907,121.483793,31.219014,310100025709018,,
上海地铁,地铁8号线,大世界,1.03,19.937,121.479182,31.227392,310100025709017,,
上海地铁,地铁8号线,人民广场,0.705,20.642,121.475108,31.232687,310100025685017,,
上海地铁,地铁8号线,曲阜路,1.122,21.764,121.471543,31.242307,310100025709015,,
上海地铁,地铁8号线,中兴路,1.238,23.002,121.469026,31.253228,310100025709014,,
上海地铁,地铁8号线,西藏北路,1.137,24.139,121.468818,31.263453,310100025709013,,
上海地铁,地铁8号线,虹口足球场,1.321,25.46,121.479154,31.271392,310100025709012,,
上海地铁,地铁8号线,曲阳路,1.274,26.734,121.491138,31.276524,310100025709011,,
上海地铁,地铁8号线,四平路,1.0,27.734,121.501488,31.27488,310100025709010,,
上海地铁,地铁8号线,鞍山新村,0.8,28.534,121.509685,31.273242,310100025709009,,
上海地铁,地铁8号线,江浦路,0.848,29.382,121.518379,31.274946,310100025709008,,
上海地铁,地铁8号线,黄兴路,1.045,30.427,121.528401,31.278814,310100025709007,,
上海地铁,地铁8号线,延吉中路,1.248,31.675,121.534941,31.288543,310100025709006,,
上海地铁,地铁8号线,黄兴公园,0.776,32.451,121.533383,31.295389,310100025709005,,
上海地铁,地铁8号线,翔殷路,1.077,33.528,121.531974,31.305002,310100025709004,,
上海地铁,地铁8号线,嫩江路,1.09,34.618,121.531954,31.314804,310100025709003,,
上海地铁,地铁8号线,市光路,0.881,35.499,121.531933,31.322724,310100025709002,,
上海地铁,地铁9号线,曹路,0.0,0.0,121.683153,31.271297,310100024546036,,
上海地铁,地铁9号线,民雷路,1.466,1.466,121.668125,31.268335,310100024546035,,
上海地铁,地铁9号线,顾唐路,1.136,2.602,121.656465,31.266074,310100024546034,,
上海地铁,地铁9号线,金海路,1.726,4.328,121.638629,31.263141,310100024546033,,
上海地铁,地铁9号线,金吉路,0.949,5.277,121.628741,31.264304,310100024546032,,
上海地铁,地铁9号线,金桥,1.698,6.975,121.611336,31.26085,310100024546031,,
上海地铁,地铁9号线,台儿庄路,1.593,8.568,121.597458,31.252825,310100024546030,,
上海地铁,地铁9号线,蓝天路,2.268,10.836,121.577995,31.241028,310100024546029,,
上海地铁,地铁9号线,芳甸路,2.122,12.958,121.558431,31.231845,310100024546028,,
上海地铁,地铁9号线,杨高中路,1.046,14.004,121.548664,31.22751,310100024546027,,
上海地铁,地铁9号线,世纪大道,2.044,16.048,121.527213,31.228682,310100024540013,,
上海地铁,地铁9号线,商城路,1.055,17.103,121.516275,31.230258,310100024546025,,
上海地铁,地铁9号线,小南门,2.26,19.363,121.498398,31.216866,310100024546024,,
上海地铁,地铁9号线,陆家浜路,1.297,20.66,121.486115,31.211789,310100024546023,,
上海地铁,地铁9号线,马当路,0.879,21.539,121.477256,31.20952,310100024524014,,
上海地铁,地铁9号线,打浦桥,0.89,22.429,121.468681,31.206309,310100024546021,,
上海地铁,地铁9号线,嘉善路,0.852,23.281,121.460704,31.20282,310100024546020,,
上海地铁,地铁9号线,肇嘉浜路,1.066,24.347,121.450212,31.199436,310100024542014,,
上海地铁,地铁9号线,徐家汇,1.366,25.713,121.436603,31.195514,310100024518023,,
上海地铁,地铁9号线,宜山路,1.326,27.039,121.427194,31.186717,310100024546017,,
上海地铁,地铁9号线,桂林路,1.585,28.624,121.418064,31.174791,310100024546016,,
上海地铁,地铁9号线,漕河泾开发区,1.985,30.609,121.397769,31.170644,310100024546015,,
上海地铁,地铁9号线,合川路,1.318,31.927,121.384772,31.166542,310100024546014,,
上海地铁,地铁9号线,星中路,1.777,33.704,121.368903,31.158109,310100024546013,,
上海地铁,地铁9号线,七宝,1.899,35.603,121.349221,31.155287,310100024546012,,
上海地铁,地铁9号线,中春路,1.521,37.124,121.334596,31.149766,310100024546011,,
上海地铁,地铁9号线,九亭,2.005,39.129,121.319423,31.137252,310100024546010,,
上海地铁,地铁9号线,泗泾,6.015,45.144,121.260247,31.118272,310100024546009,,
上海地铁,地铁9号线,佘山,3.309,48.453,121.229686,31.104097,310100024546008,,
上海地铁,地铁9号线,洞泾,2.181,50.634,121.230473,31.084492,310100024546007,,
上海地铁,地铁9号线,松江大学城,3.398,54.032,121.232577,31.053984,310100024546006,,
上海地铁,地铁9号线,松江新城,2.64,56.672,121.230739,31.030295,310100024546005,,
上海地铁,地铁9号线,松江体育中心,1.589,58.261,121.230546,31.016006,310100024546004,,
上海地铁,地铁9号线,醉白池,1.659,59.92,121.229361,31.001125,310100024546003,,
上海地铁,地铁9号线,上海松江站,1.819,61.739,121.230884,30.984818,310100024546002,,
上海地铁,市域机场线,虹桥2号航站楼,0.0,0.0,121.324443,31.194055,310100025693021,,
上海地铁,市域机场线,中春路,5.019,5.019,121.334596,31.149766,310100024546011,,
上海地铁,市域机场线,景洪路,11.348,16.367,121.44431,31.109817,900000070795023,,
上海地铁,市域机场线,三林南,4.433,20.8,121.486854,31.126039,900000119999031,,
上海地铁,市域机场线,康桥东,12.403,33.203,121.614894,31.146808,900000159999005,,
上海地铁,市域机场线,上海国际旅游度假区,6.257,39.46,121.67973,31.156182,900000159999006,,
上海地铁,市域机场线,浦东1号2号航站楼,11.991,51.451,121.805591,31.150958,310100025693024,,
上海地铁,磁浮线,浦东1号2号航站楼,0.0,0.0,121.805591,31.150958,310100025693024,,
上海地铁,磁浮线,龙阳路,24.304,24.304,121.557634,31.203575,310100024526014,,
上海地铁,轨道交通浦江线,沈杜公路,0.0,0.0,121.512272,31.061427,310100025709031,,
上海地铁,轨道交通浦江线,三鲁公路,1.557,1.557,121.527389,31.056108,900000039797005,,
上海地铁,轨道交通浦江线,闵瑞路,0.949,2.506,121.530323,31.047956,900000039797004,,
上海地铁,轨道交通浦江线,浦航路,0.775,3.281,121.530591,31.040993,900000039797003,,
上海地铁,轨道交通浦江线,东城一路,1.188,4.469,121.532093,31.03039,900000039797002,,
上海地铁,轨道交通浦江线,汇臻路,0.918,5.387,121.524558,31.025245,900000039797001,,
