系统,线路,站名,站间距(km),累计里程(km),经度,纬度,station ID,pinyin,year of opening
港铁,将军澳线,北角,0.0,0.0,114.205467,22.288219,810000020804004,,
港铁,将军澳线,鲗鱼涌,1.014,1.014,114.214680,22.284993,810000020804005,,
港铁,将军澳线,油塘,3.02,4.034,114.241935,22.295066,810000020804006,,
港铁,将军澳线,调景岭,1.711,5.745,114.257144,22.301297,810000020804007,,
港铁,将军澳线,将军澳,0.861,6.606,114.264721,22.304583,810000020804002,,
港铁,将军澳线,坑口,1.0,7.606,114.269180,22.312577,810000023589003,,
港铁,将军澳线,宝琳,1.048,8.654,114.262590,22.319765,810000023589002,,
