系统,线路,站名,站间距(km),累计里程(km),经度,纬度,station ID,pinyin,year of opening
济南地铁,云巴1号线,徐马,0.0,0.0,117.335413,36.693946,900000235330022,,
济南地铁,云巴1号线,春园路,1.041,1.041,117.337984,36.684813,900000235330053,,
济南地铁,云巴1号线,市妇幼东院,0.691,1.732,117.330552,36.683047,900000235330052,,
济南地铁,云巴1号线,山东职业学院(云巴),1.021,2.753,117.325931,36.674649,900000235330051,,
济南地铁,云巴1号线,庄科,1.068,3.821,117.323684,36.665214,900000235330050,,
济南地铁,云巴1号线,春景路,0.858,4.679,117.318291,36.658828,900000235330049,,
济南地铁,云巴1号线,科创城,0.769,5.448,117.31085,36.662325,900000235330048,,
济南地铁,云巴1号线,春博路(云巴),0.954,6.402,117.307231,36.670395,900000235330047,,
济南地铁,云巴1号线,孙村,0.924,7.326,117.306675,36.67869,900000235330046,,
济南地铁,云巴1号线,彩虹湖东,0.553,7.879,117.300487,36.679041,900000235330045,,
济南地铁,云巴1号线,彩虹湖,0.595,8.474,117.293929,36.67808,900000235330044,,
济南地铁,云巴1号线,春意路,1.115,9.589,117.28146,36.677296,900000235330043,,
济南地铁,云巴1号线,春喧路,0.786,10.375,117.272654,36.677606,900000235330042,,
济南地铁,云巴1号线,沙沟,0.63,11.005,117.266092,36.679707,900000235330041,,
济南地铁,云巴1号线,科航路,0.908,11.913,117.263624,36.687625,900000235330040,,
济南地铁,云巴1号线,春秀路,0.884,12.797,117.25816,36.694257,900000235330039,,
济南地铁,云巴1号线,唐宣路,1.964,14.761,117.236914,36.689588,900000235330038,,
济南地铁,云巴1号线,历城文博中心,0.399,15.16,117.232445,36.689668,900000235330037,,
济南地铁,云巴1号线,唐冶(云巴),0.416,15.576,117.227784,36.689863,900000235330036,,
济南地铁,云巴1号线,贞观街,0.73,16.306,117.228032,36.696429,900000235330035,,
济南地铁,云巴1号线,历城二中唐冶校区(云巴),0.816,17.122,117.229278,36.703699,900000235330034,,
济南地铁,云巴1号线,彭家庄(云巴),0.608,17.73,117.230211,36.709118,900000235330033,,
济南地铁,云巴1号线,唐冶东路,0.63,18.36,117.237277,36.709132,900000235330032,,
济南地铁,云巴1号线,武家庄,1.476,19.836,117.253805,36.709993,900000235330031,,
济南地铁,云巴1号线,武将山东,1.296,21.132,117.268328,36.709401,900000235330030,,
济南地铁,云巴1号线,科远路,0.646,21.778,117.270516,36.703863,900000235330029,,
济南地铁,云巴1号线,世纪大道春喧路,1.007,22.785,117.273828,36.695202,900000235330028,,
济南地铁,云巴1号线,春晖路,1.6,24.385,117.291774,36.695163,900000235330027,,
济南地铁,云巴1号线,高新实验中学,0.59,24.975,117.298384,36.695291,900000235330026,,
济南地铁,云巴1号线,高新一中,0.725,25.7,117.306509,36.695123,900000235330025,,
济南地铁,云巴1号线,西巨野河,0.852,26.552,117.316034,36.694523,900000235330024,,
济南地铁,云巴1号线,大正路,1.271,27.823,117.33028,36.694114,900000235330023,,
济南地铁,轨道交通1号线,方特,0.0,0.0,116.894884,36.68258,900000071030001,,
济南地铁,轨道交通1号线,济南西站,1.459,1.459,116.893758,36.669486,900000071030002,,
济南地铁,轨道交通1号线,大杨,2.164,3.623,116.896207,36.650122,900000071030003,,
济南地铁,轨道交通1号线,王府庄,3.204,6.827,116.881587,36.623802,900000071030004,,
济南地铁,轨道交通1号线,玉符河,2.626,9.453,116.857649,36.610067,900000071030005,,
济南地铁,轨道交通1号线,赵营,2.974,12.427,116.834664,36.590704,900000071030006,,
济南地铁,轨道交通1号线,紫薇路,3.289,15.716,116.810216,36.568575,900000071030007,,
济南地铁,轨道交通1号线,大学城,1.901,17.617,116.803741,36.552291,900000071030008,,
济南地铁,轨道交通1号线,园博园,1.833,19.45,116.79996,36.536088,900000071030009,,
济南地铁,轨道交通1号线,创新谷,2.925,22.375,116.805017,36.510099,900000071030010,,
济南地铁,轨道交通1号线,工研院,1.565,23.94,116.795194,36.498445,900000071030011,,
济南地铁,轨道交通2号线,王府庄,0.0,0.0,116.881587,36.623802,900000071030004,,
济南地铁,轨道交通2号线,腊山南,1.831,1.831,116.902058,36.624847,900000073474037,,
济南地铁,轨道交通2号线,腊山,3.422,5.253,116.918965,36.652471,900000073474036,,
济南地铁,轨道交通2号线,二环西路,1.702,6.955,116.932335,36.663397,900000073474035,,
济南地铁,轨道交通2号线,老屯,1.96,8.915,116.95404,36.666121,900000073474034,,
济南地铁,轨道交通2号线,八里桥,0.856,9.771,116.962142,36.670251,900000073474033,,
济南地铁,轨道交通2号线,益康路,0.986,10.757,116.972487,36.673391,900000073474032,,
济南地铁,轨道交通2号线,济南站北,1.213,11.97,116.985296,36.677061,900000073474031,,
济南地铁,轨道交通2号线,济泺路,1.173,13.143,116.994501,36.684591,900000073474030,,
济南地铁,轨道交通2号线,生产路,1.988,15.131,117.016792,36.684554,900000073474029,,
济南地铁,轨道交通2号线,北园,1.533,16.664,117.033849,36.686266,900000073474028,,
济南地铁,轨道交通2号线,历山路,0.779,17.443,117.041955,36.688889,900000073474027,,
济南地铁,轨道交通2号线,七里堡,2.292,19.735,117.067563,36.690665,900000073474026,,
济南地铁,轨道交通2号线,祝甸,1.517,21.252,117.082382,36.697363,900000073474025,,
济南地铁,轨道交通2号线,八涧堡,2.057,23.309,117.103395,36.704998,900000066599010,,
济南地铁,轨道交通2号线,姜家庄,2.159,25.468,117.127551,36.706385,900000073474023,,
济南地铁,轨道交通2号线,凤凰北路,1.622,27.09,117.145572,36.708422,900000073474022,,
济南地铁,轨道交通2号线,鲍山,3.78,30.87,117.187961,36.709211,900000073474021,,
济南地铁,轨道交通2号线,彭家庄,3.735,34.605,117.229862,36.70961,900000073474020,,
济南地铁,轨道交通3号线,机场南,0.0,0.0,117.210757,36.85161,900000066599022,,
济南地铁,轨道交通3号线,临空,2.458,2.458,117.209664,36.829518,900000066599018,,
济南地铁,轨道交通3号线,临港北路,3.458,5.916,117.207155,36.798486,900000066599019,,
济南地铁,轨道交通3号线,川流,2.821,8.737,117.193718,36.775516,900000066599020,,
济南地铁,轨道交通3号线,曲家庄,1.575,10.312,117.178175,36.768758,900000066599021,,
济南地铁,轨道交通3号线,滩头,1.175,11.487,117.1652,36.76686,900000066599005,,
济南地铁,轨道交通3号线,济南东站,2.191,13.678,117.159754,36.747646,900000066599006,,
济南地铁,轨道交通3号线,裴家营,1.434,15.112,117.159461,36.734748,900000066599007,,
济南地铁,轨道交通3号线,王舍人,2.477,17.589,117.138371,36.720246,900000066599008,,
济南地铁,轨道交通3号线,张马屯,2.078,19.667,117.115131,36.71877,900000066599009,,
济南地铁,轨道交通3号线,八涧堡,1.855,21.522,117.103395,36.704998,900000066599010,,
济南地铁,轨道交通3号线,花园东路,1.433,22.955,117.106489,36.692354,900000066599011,,
济南地铁,轨道交通3号线,丁家庄,1.662,24.617,117.109794,36.677647,900000066599012,,
济南地铁,轨道交通3号线,安成街,1.022,25.639,117.109853,36.668454,900000066599013,,
济南地铁,轨道交通3号线,奥体中心,1.017,26.656,117.11151,36.659401,900000066599014,,
济南地铁,轨道交通3号线,龙奥大厦,0.998,27.654,117.114436,36.650738,900000066599015,,
济南地铁,轨道交通3号线,孟家庄,2.0,29.654,117.120075,36.633326,900000066599016,,
济南地铁,轨道交通3号线,龙洞,1.691,31.345,117.117876,36.618222,900000066599017,,
济南地铁,轨道交通4号线,彭家庄,0.0,0.0,117.229862,36.70961,900000073474020,,
济南地铁,轨道交通4号线,历城二中唐冶校区,0.771,0.771,117.22909,36.7027,900000217582002,,
济南地铁,轨道交通4号线,唐冶,1.42,2.191,117.226263,36.690131,900000217582003,,
济南地铁,轨道交通4号线,唐冶公园,1.2,3.391,117.226833,36.679345,900000217582004,,
济南地铁,轨道交通4号线,邢村立交桥东,1.103,4.494,117.219162,36.67156,900000217582005,,
济南地铁,轨道交通4号线,邢村立交桥西,1.555,6.049,117.201985,36.673935,900000217582006,,
济南地铁,轨道交通4号线,文旅城,0.776,6.825,117.193557,36.672206,900000217582007,,
济南地铁,轨道交通4号线,黄金产业园,1.195,8.02,117.180422,36.670094,900000217582008,,
济南地铁,轨道交通4号线,林家庄,1.324,9.344,117.165682,36.668644,900000217582009,,
济南地铁,轨道交通4号线,汉峪金谷,1.488,10.832,117.150418,36.66324,900000217582010,,
济南地铁,轨道交通4号线,舜泰广场,0.621,11.453,117.143975,36.661133,900000217582011,,
济南地铁,轨道交通4号线,奥体东路,1.384,12.837,117.128587,36.659551,900000217582012,,
济南地铁,轨道交通4号线,奥体中心,1.523,14.36,117.11151,36.659401,900000066599014,,
济南地铁,轨道交通4号线,转山西路(万象城),0.849,15.209,117.102219,36.657726,900000177338006,,
济南地铁,轨道交通4号线,山东博物馆,0.771,15.98,117.094104,36.655339,900000217582015,,
济南地铁,轨道交通4号线,浆水泉路,0.764,16.744,117.085976,36.653165,900000217582016,,
济南地铁,轨道交通4号线,燕山立交桥,0.726,17.47,117.077965,36.65202,900000217582017,,
济南地铁,轨道交通4号线,山大路南口,1.99,19.46,117.055971,36.64906,900000217582018,,
济南地铁,轨道交通4号线,山师东路,0.87,20.33,117.046235,36.648576,900000217582033,,
济南地铁,轨道交通4号线,千佛山,1.048,21.378,117.034509,36.648026,900000217582019,,
济南地铁,轨道交通4号线,泉城公园,1.299,22.677,117.019947,36.648118,900000217582020,,
济南地铁,轨道交通4号线,省体育中心,0.756,23.433,117.011473,36.648099,900000217582021,,
济南地铁,轨道交通4号线,八一立交桥,1.15,24.583,116.998607,36.648749,900000217582022,,
济南地铁,轨道交通4号线,五里牌坊,1.464,26.047,116.982198,36.648457,900000217582023,,
济南地铁,轨道交通4号线,南辛庄,0.936,26.983,116.971708,36.648376,900000217582024,,
济南地铁,轨道交通4号线,营市街,0.908,27.891,116.961539,36.648586,900000217582025,,
济南地铁,轨道交通4号线,段店,1.874,29.765,116.940733,36.650875,900000217582026,,
济南地铁,轨道交通4号线,腊山,1.95,31.715,116.918965,36.652471,900000073474036,,
济南地铁,轨道交通4号线,腊山河公园,1.291,33.006,116.904648,36.650786,900000217582028,,
济南地铁,轨道交通4号线,大杨,0.757,33.763,116.896207,36.650122,900000071030003,,
济南地铁,轨道交通4号线,济南西站西广场,2.175,35.938,116.888885,36.668777,900000217582030,,
济南地铁,轨道交通4号线,春风悦动公园,1.32,37.258,116.883075,36.679693,900000217582031,,
济南地铁,轨道交通4号线,第一医科大学,1.294,38.552,116.869385,36.675843,900000217582032,,
济南地铁,轨道交通6号线,梁王,0.0,0.0,117.176455,36.747458,900000217623003,,
济南地铁,轨道交通6号线,梁王西,1.099,1.099,117.188781,36.747173,900000217623002,,
济南地铁,轨道交通6号线,济南东站,2.587,3.686,117.159754,36.747646,900000066599006,,
济南地铁,轨道交通6号线,响泉街,1.842,5.528,117.145417,36.735716,900000217623005,,
济南地铁,轨道交通6号线,王舍人立交桥,1.502,7.03,117.146306,36.722227,900000217623006,,
济南地铁,轨道交通6号线,凤凰北路,1.536,8.566,117.145572,36.708422,900000073474022,,
济南地铁,轨道交通6号线,徐家庄,1.116,9.682,117.147545,36.698508,900000217623008,,
济南地铁,轨道交通6号线,世纪大道,1.043,10.725,117.148215,36.689146,900000217623009,,
济南地铁,轨道交通6号线,开拓路,1.089,11.814,117.142184,36.680626,900000217623010,,
济南地铁,轨道交通6号线,齐鲁软件园,1.12,12.934,117.131374,36.675505,900000217623011,,
济南地铁,轨道交通6号线,天泺路,1.284,14.218,117.119062,36.669511,900000217623012,,
济南地铁,轨道交通6号线,安成街,0.83,15.048,117.109853,36.668454,900000066599013,,
济南地铁,轨道交通6号线,中央商务区,0.806,15.854,117.100819,36.668423,900000177338007,,
济南地铁,轨道交通6号线,茂陵山,0.553,16.407,117.094615,36.668531,900000217623015,,
济南地铁,轨道交通6号线,七里河路南口,1.284,17.691,117.081066,36.672431,900000217623016,,
济南地铁,轨道交通6号线,山大南路东口,0.553,18.244,117.0749,36.671893,900000217623017,,
济南地铁,轨道交通6号线,山东大学,1.571,19.815,117.057286,36.671864,900000217623018,,
济南地铁,轨道交通8号线,清源大街,0.0,0.0,117.485699,36.668102,900000217676001,,
济南地铁,轨道交通8号线,绣源河,1.211,1.211,117.472124,36.668169,900000217676002,,
济南地铁,轨道交通8号线,山大龙山,1.752,2.963,117.452564,36.66964,900000217676003,,
济南地铁,轨道交通8号线,圣井,2.326,5.289,117.426523,36.670837,900000217676004,,
济南地铁,轨道交通8号线,黄旗山北,1.845,7.134,117.40592,36.672335,900000217676005,,
济南地铁,轨道交通8号线,黄土崖,1.715,8.849,117.386777,36.673757,900000217676006,,
济南地铁,轨道交通8号线,山财章丘校区,1.126,9.975,117.374211,36.674705,900000217676007,,
济南地铁,轨道交通8号线,山东现代学院,1.991,11.966,117.351972,36.676321,900000217676008,,
济南地铁,轨道交通8号线,山东职业学院,2.401,14.367,117.325107,36.674966,900000217676009,,
济南地铁,轨道交通8号线,春博路,1.771,16.138,117.306681,36.669035,900000217676010,,
济南地铁,轨道交通8号线,公路技师学院,2.145,18.283,117.284242,36.662106,900000217676011,,
济南地铁,轨道交通8号线,超算中心,1.898,20.181,117.262964,36.661713,900000217676012,,
济南地铁,轨道交通8号线,青年政治学院,2.184,22.365,117.240208,36.668975,900000217676013,,
济南地铁,轨道交通8号线,邢村立交桥东,1.899,24.264,117.219162,36.67156,900000217582005,,
济南地铁,轨道交通济阳线,济南东站(济阳线),0.0,0.0,117.158424,36.746472,900000235482001,,
济南地铁,轨道交通济阳线,崔寨,10.109,10.109,117.10883,36.828249,900000235482004,,
济南地铁,轨道交通济阳线,黄河会展中心,0.777,10.886,117.111973,36.834773,900000235482005,,
济南地铁,轨道交通济阳线,英才学院北校区,2.326,13.212,117.113791,36.85564,900000235482006,,
济南地铁,轨道交通济阳线,清宁,1.027,14.239,117.114657,36.864847,900000235482007,,
济南地铁,轨道交通济阳线,花二庄北街,1.503,15.742,117.115946,36.878322,900000235482008,,
济南地铁,轨道交通济阳线,回河,6.115,21.857,117.120148,36.933209,900000235482009,,
济南地铁,轨道交通济阳线,新元学校,5.732,27.589,117.175364,36.959847,900000235482012,,
济南地铁,轨道交通济阳线,济北小学,1.112,28.701,117.175103,36.969846,900000235482013,,
济南地铁,轨道交通济阳线,济阳市民中心,1.182,29.883,117.175216,36.98048,900000235482014,,
济南地铁,轨道交通济阳线,济阳北,2.686,32.569,117.175629,37.004637,900000235482016,,
