系统,线路,线路ID,站名,站间距(km),累计里程(km),经度,纬度,station ID,pinyin,year of opening
深圳地铁,地铁10号线(坂田线),900000055265,双拥街,0.0,0.0,114.132978,22.698648,900000055265023,,
深圳地铁,地铁10号线(坂田线),900000055265,平湖,0.921,0.921,114.125805,22.69367,900000055265022,,
深圳地铁,地铁10号线(坂田线),900000055265,禾花,0.979,1.9,114.121064,22.686028,900000055265021,,
深圳地铁,地铁10号线(坂田线),900000055265,华南城,1.125,3.025,114.12225,22.675974,900000055265020,,
深圳地铁,地铁10号线(坂田线),900000055265,木古,0.739,3.764,114.122502,22.669328,900000055265019,,
深圳地铁,地铁10号线(坂田线),900000055265,上李朗,1.763,5.527,114.127071,22.654048,900000055265018,,
深圳地铁,地铁10号线(坂田线),900000055265,凉帽山,1.196,6.723,114.118964,22.646323,900000055265017,,
深圳地铁,地铁10号线(坂田线),900000055265,甘坑,1.359,8.082,114.105826,22.647828,900000055265016,,
深圳地铁,地铁10号线(坂田线),900000055265,雪象,2.936,11.018,114.078964,22.656909,900000055265015,,
深圳地铁,地铁10号线(坂田线),900000055265,岗头,0.726,11.744,114.071895,22.657067,900000055265014,,
深圳地铁,地铁10号线(坂田线),900000055265,华为,0.882,12.626,114.067171,22.650445,900000055265013,,
深圳地铁,地铁10号线(坂田线),900000055265,贝尔路,0.974,13.6,114.066366,22.641719,900000055265012,,
深圳地铁,地铁10号线(坂田线),900000055265,坂田北,0.816,14.416,114.063369,22.634919,900000055265011,,
深圳地铁,地铁10号线(坂田线),900000055265,五和,0.94,15.356,114.060681,22.626833,440300024058013,,
深圳地铁,地铁10号线(坂田线),900000055265,光雅园,1.161,16.517,114.060892,22.616397,900000055265009,,
深圳地铁,地铁10号线(坂田线),900000055265,南坑,0.613,17.13,114.060546,22.610894,900000055265024,,
深圳地铁,地铁10号线(坂田线),900000055265,雅宝,0.707,17.837,114.060309,22.604541,900000055265008,,
深圳地铁,地铁10号线(坂田线),900000055265,孖岭,4.085,21.922,114.067778,22.568458,440300024054024,,
深圳地铁,地铁10号线(坂田线),900000055265,冬瓜岭,0.892,22.814,114.067592,22.560437,900000055265006,,
深圳地铁,地铁10号线(坂田线),900000055265,莲花村,1.311,24.125,114.067829,22.548646,440300024060026,,
深圳地铁,地铁10号线(坂田线),900000055265,岗厦北,1.148,25.273,114.067964,22.53832,440300024056027,,
深圳地铁,地铁10号线(坂田线),900000055265,岗厦,0.386,25.659,114.06819,22.534854,440300024063025,,
深圳地铁,地铁10号线(坂田线),900000055265,福民,1.314,26.973,114.065915,22.523226,440300024050015,,
深圳地铁,地铁10号线(坂田线),900000055265,福田口岸,0.72,27.693,114.067321,22.516887,440300024074016,,
深圳地铁,地铁11号线,440300024056,碧头,0.0,0.0,113.819958,22.784044,440300024056025,,
深圳地铁,地铁11号线,440300024056,松岗,1.642,1.642,113.829631,22.772271,440300024046020,,
深圳地铁,地铁11号线,440300024056,后亭,2.203,3.845,113.826874,22.752625,440300024056024,,
深圳地铁,地铁11号线,440300024056,沙井,2.434,6.279,113.824434,22.730849,440300024056023,,
深圳地铁,地铁11号线,440300024056,马安山,1.718,7.997,113.817005,22.716998,440300024056022,,
深圳地铁,地铁11号线,440300024056,塘尾,1.662,9.659,113.817878,22.702075,440300024056021,,
深圳地铁,地铁11号线,440300024056,桥头,1.703,11.362,113.811001,22.688133,440300024056020,,
深圳地铁,地铁11号线,440300024056,福永,1.697,13.059,113.806076,22.673562,440300024056009,,
深圳地铁,地铁11号线,440300024056,机场北,2.623,15.682,113.798179,22.651128,440300024056026,,
深圳地铁,地铁11号线,440300024056,机场,3.407,19.089,113.813663,22.624026,440300024056019,,
深圳地铁,地铁11号线,440300024056,碧海湾,6.972,26.061,113.856093,22.575073,440300024056018,,
深圳地铁,地铁11号线,440300024056,宝安,3.379,29.44,113.880396,22.55459,440300024056017,,
深圳地铁,地铁11号线,440300024056,前海湾,2.649,32.089,113.897932,22.537121,440300024056006,,
深圳地铁,地铁11号线,440300024056,南山,3.001,35.09,113.923483,22.524037,440300024056005,,
深圳地铁,地铁11号线,440300024056,后海,2.157,37.247,113.943503,22.518172,440300024056016,,
深圳地铁,地铁11号线,440300024056,红树湾南,2.919,40.166,113.971433,22.523023,440300024054031,,
深圳地铁,地铁11号线,440300024056,车公庙,5.777,45.943,114.02583,22.536247,440300024050011,,
深圳地铁,地铁11号线,440300024056,福田,2.811,48.754,114.052879,22.540087,440300024056002,,
深圳地铁,地铁11号线,440300024056,岗厦北,1.562,50.316,114.067964,22.53832,440300024056027,,
深圳地铁,地铁11号线,440300024056,福星,1.398,51.714,114.081538,22.537388,440300024056029,,
深圳地铁,地铁11号线,440300024056,华强南,0.543,52.257,114.086825,22.537214,440300024050018,,
深圳地铁,地铁11号线,440300024056,红岭南,2.001,54.258,114.106261,22.53849,440300024054004,,
深圳地铁,地铁12号线(南宝线),900000094862,松岗,0.0,0.0,113.829631,22.772271,440300024046020,,
深圳地铁,地铁12号线(南宝线),900000094862,朗下,1.276,1.276,113.818115,22.767913,900000094862035,,
深圳地铁,地铁12号线(南宝线),900000094862,步涌,1.325,2.601,113.812181,22.757325,900000094862036,,
深圳地铁,地铁12号线(南宝线),900000094862,沙井古墟,1.516,4.117,113.808554,22.744104,900000094862037,,
深圳地铁,地铁12号线(南宝线),900000094862,沙蚝,0.872,4.989,113.801591,22.739607,900000094862038,,
深圳地铁,地铁12号线(南宝线),900000094862,蚝乡,1.178,6.167,113.790149,22.740545,900000094862039,,
深圳地铁,地铁12号线(南宝线),900000094862,海上田园东,1.385,7.552,113.781235,22.731193,900000094862001,,
深圳地铁,地铁12号线(南宝线),900000094862,海上田园南,1.598,9.15,113.774406,22.718275,900000094862002,,
深圳地铁,地铁12号线(南宝线),900000094862,国展北,1.703,10.853,113.776899,22.703129,900000075925005,,
深圳地铁,地铁12号线(南宝线),900000094862,国展,0.805,11.658,113.777957,22.695959,900000075925004,,
深圳地铁,地铁12号线(南宝线),900000094862,福海西,1.451,13.109,113.789475,22.688385,900000094862005,,
深圳地铁,地铁12号线(南宝线),900000094862,桥头西,1.006,14.115,113.797429,22.683097,900000094862006,,
深圳地铁,地铁12号线(南宝线),900000094862,福永,1.382,15.497,113.806076,22.673562,440300024056009,,
深圳地铁,地铁12号线(南宝线),900000094862,怀德,1.523,17.02,113.818894,22.666657,900000094862008,,
深圳地铁,地铁12号线(南宝线),900000094862,福围,1.117,18.137,113.82118,22.65684,900000094862009,,
深圳地铁,地铁12号线(南宝线),900000094862,机场东,1.104,19.241,113.822634,22.647001,440300024063002,,
深圳地铁,地铁12号线(南宝线),900000094862,兴围,1.3,20.541,113.834486,22.642865,900000094862011,,
深圳地铁,地铁12号线(南宝线),900000094862,黄田,1.817,22.358,113.845683,22.630205,900000094862012,,
深圳地铁,地铁12号线(南宝线),900000094862,钟屋南,1.901,24.259,113.859227,22.618542,900000094862013,,
深圳地铁,地铁12号线(南宝线),900000094862,西乡桃源,0.896,25.155,113.862348,22.611019,900000094862014,,
深圳地铁,地铁12号线(南宝线),900000094862,平峦山,1.158,26.313,113.869771,22.603183,900000094862015,,
深圳地铁,地铁12号线(南宝线),900000094862,宝田一路,1.314,27.627,113.878477,22.594523,900000094862016,,
深圳地铁,地铁12号线(南宝线),900000094862,宝安客运站,0.786,28.413,113.883674,22.589332,900000094862017,,
深圳地铁,地铁12号线(南宝线),900000094862,流塘,0.849,29.262,113.889292,22.583729,900000094862018,,
深圳地铁,地铁12号线(南宝线),900000094862,上川,0.888,30.15,113.895129,22.577838,900000094862019,,
深圳地铁,地铁12号线(南宝线),900000094862,灵芝,1.354,31.504,113.904158,22.568964,440300024058023,,
深圳地铁,地铁12号线(南宝线),900000094862,新安公园,1.013,32.517,113.910883,22.562303,900000094862021,,
深圳地铁,地铁12号线(南宝线),900000094862,同乐南,1.043,33.56,113.918738,22.556361,900000094862022,,
深圳地铁,地铁12号线(南宝线),900000094862,中山公园,1.136,34.696,113.923225,22.547021,900000094862023,,
深圳地铁,地铁12号线(南宝线),900000094862,南头古城,0.956,35.652,113.924145,22.538465,900000094862024,,
深圳地铁,地铁12号线(南宝线),900000094862,桃园,0.777,36.429,113.924781,22.531506,440300024063013,,
深圳地铁,地铁12号线(南宝线),900000094862,南山,0.841,37.27,113.923483,22.524037,440300024056005,,
深圳地铁,地铁12号线(南宝线),900000094862,南光,0.819,38.089,113.924322,22.516714,900000094862027,,
深圳地铁,地铁12号线(南宝线),900000094862,南油,0.735,38.824,113.925766,22.510238,440300024054036,,
深圳地铁,地铁12号线(南宝线),900000094862,四海,1.168,39.992,113.921978,22.500338,900000094862029,,
深圳地铁,地铁12号线(南宝线),900000094862,花果山,0.731,40.723,113.919046,22.494352,900000094862030,,
深圳地铁,地铁12号线(南宝线),900000094862,海上世界,1.105,41.828,113.915111,22.485101,440300024076004,,
深圳地铁,地铁12号线(南宝线),900000094862,太子湾,1.427,43.255,113.911117,22.472806,900000094862032,,
深圳地铁,地铁12号线(南宝线),900000094862,左炮台东,1.407,44.662,113.897893,22.469514,900000094862033,,
深圳地铁,地铁13号线(石岩线),900000094840,深圳湾口岸,0.0,0.0,113.950252,22.502977,900000094840001,,
深圳地铁,地铁13号线(石岩线),900000094840,人才公园,1.249,1.249,113.943126,22.512078,900000094840002,,
深圳地铁,地铁13号线(石岩线),900000094840,后海,0.679,1.928,113.943503,22.518172,440300024056016,,
深圳地铁,地铁13号线(石岩线),900000094840,科苑,1.022,2.95,113.946195,22.527019,440300024076011,,
深圳地铁,地铁13号线(石岩线),900000094840,粤海门,0.635,3.585,113.945531,22.532695,440300024054033,,
深圳地铁,地铁13号线(石岩线),900000094840,深大,0.679,4.264,113.944173,22.538667,440300024063014,,
深圳地铁,地铁13号线(石岩线),900000094840,高新中,0.935,5.199,113.945319,22.547012,900000094840007,,
深圳地铁,地铁13号线(石岩线),900000094840,高新北,1.091,6.29,113.945497,22.556822,900000094840017,,
深圳地铁,地铁13号线(石岩线),900000094840,石鼓,1.964,8.254,113.944008,22.574429,900000094840019,,
深圳地铁,地铁13号线(石岩线),900000094840,留仙洞,0.681,8.935,113.943543,22.580534,440300024058020,,
深圳地铁,地铁13号线(石岩线),900000094840,百旺,4.64,13.575,113.939193,22.622073,900000094840021,,
深圳地铁,地铁13号线(石岩线),900000094840,应人石,2.812,16.387,113.926469,22.644471,900000094840022,,
深圳地铁,地铁13号线(石岩线),900000094840,罗租,2.742,19.129,113.933819,22.668178,900000094840023,,
深圳地铁,地铁13号线(石岩线),900000094840,石岩,1.405,20.534,113.938218,22.680142,900000094840024,,
深圳地铁,地铁13号线(石岩线),900000094840,上屋,0.982,21.516,113.939795,22.688855,440300024046025,,
深圳地铁,地铁14号线(东部快线),900000095033,岗厦北,0.0,0.0,114.067964,22.53832,440300024056027,,
深圳地铁,地铁14号线(东部快线),900000095033,黄木岗,2.766,2.766,114.087234,22.555699,440300024050020,,
深圳地铁,地铁14号线(东部快线),900000095033,罗湖北,3.843,6.609,114.113016,22.58075,900000095033015,,
深圳地铁,地铁14号线(东部快线),900000095033,布吉,2.541,9.15,114.121159,22.60233,440300024058007,,
深圳地铁,地铁14号线(东部快线),900000095033,石芽岭,3.38,12.53,114.138014,22.628448,900000095033013,,
深圳地铁,地铁14号线(东部快线),900000095033,六约北,4.176,16.706,114.175728,22.642536,900000095033018,,
深圳地铁,地铁14号线(东部快线),900000095033,四联,1.876,18.582,114.192858,22.648424,900000095033011,,
深圳地铁,地铁14号线(东部快线),900000095033,坳背,3.096,21.678,114.213518,22.668713,900000095033010,,
深圳地铁,地铁14号线(东部快线),900000095033,大运,2.415,24.093,114.228163,22.68572,440300024060007,,
深圳地铁,地铁14号线(东部快线),900000095033,嶂背,2.312,26.405,114.249547,22.692296,900000095033019,,
深圳地铁,地铁14号线(东部快线),900000095033,南约,2.963,29.368,114.278075,22.688107,900000095033008,,
深圳地铁,地铁14号线(东部快线),900000095033,宝龙,2.026,31.394,114.297826,22.688325,900000095033007,,
深圳地铁,地铁14号线(东部快线),900000095033,锦龙,3.805,35.199,114.333847,22.680183,900000095033006,,
深圳地铁,地铁14号线(东部快线),900000095033,坪山围,1.603,36.802,114.34366,22.691398,900000095033005,,
深圳地铁,地铁14号线(东部快线),900000095033,坪山广场,1.148,37.95,114.348763,22.700587,900000095033004,,
深圳地铁,地铁14号线(东部快线),900000095033,坪山中心,0.76,38.71,114.351613,22.706898,900000095033003,,
深圳地铁,地铁14号线(东部快线),900000095033,坑梓,4.717,43.427,114.370956,22.745384,900000095033002,,
深圳地铁,地铁14号线(东部快线),900000095033,沙田,3.266,46.693,114.400589,22.75615,900000095033001,,
深圳地铁,地铁16号线(龙坪线),900000095071,园山西坑,0.0,0.0,114.224433,22.616749,900000095071025,,
深圳地铁,地铁16号线(龙坪线),900000095071,安良,1.268,1.268,114.219711,22.627282,900000095071026,,
深圳地铁,地铁16号线(龙坪线),900000095071,福坑,0.965,2.233,114.222133,22.635664,900000095071027,,
深圳地铁,地铁16号线(龙坪线),900000095071,大康,0.777,3.01,114.228856,22.638878,900000095071028,,
深圳地铁,地铁16号线(龙坪线),900000095071,园山,1.176,4.186,114.238076,22.645162,900000095071029,,
深圳地铁,地铁16号线(龙坪线),900000095071,大安,1.077,5.263,114.235939,22.654644,900000095071030,,
深圳地铁,地铁16号线(龙坪线),900000095071,吉溪,0.699,5.962,114.232812,22.660231,900000095071031,,
深圳地铁,地铁16号线(龙坪线),900000095071,金源,1.553,7.515,114.230389,22.674019,900000095071032,,
深圳地铁,地铁16号线(龙坪线),900000095071,大运,1.321,8.836,114.228163,22.68572,440300024060007,,
深圳地铁,地铁16号线(龙坪线),900000095071,大运中心,1.301,10.137,114.220797,22.695241,900000095071002,,
深圳地铁,地铁16号线(龙坪线),900000095071,龙城公园,1.056,11.193,114.218373,22.704475,900000095071003,,
深圳地铁,地铁16号线(龙坪线),900000095071,黄阁坑,1.624,12.817,114.218135,22.719078,900000095071004,,
深圳地铁,地铁16号线(龙坪线),900000095071,愉园,1.155,13.972,114.223374,22.728275,900000095071005,,
深圳地铁,地铁16号线(龙坪线),900000095071,回龙埔,1.285,15.257,114.235861,22.729192,900000095071006,,
深圳地铁,地铁16号线(龙坪线),900000095071,尚景,0.793,16.05,114.243587,22.729359,900000095071007,,
深圳地铁,地铁16号线(龙坪线),900000095071,盛平,0.966,17.016,114.252682,22.731624,900000095071008,,
深圳地铁,地铁16号线(龙坪线),900000095071,龙园,1.402,18.418,114.266336,22.731005,900000095071009,,
深圳地铁,地铁16号线(龙坪线),900000095071,双龙,1.163,19.581,114.277422,22.728806,440300024060002,,
深圳地铁,地铁16号线(龙坪线),900000095071,新塘围,0.997,20.578,114.286428,22.725432,900000095071011,,
深圳地铁,地铁16号线(龙坪线),900000095071,龙东,1.111,21.689,114.296398,22.72152,900000095071012,,
深圳地铁,地铁16号线(龙坪线),900000095071,宝龙同乐,2.129,23.818,114.312277,22.709196,900000095071013,,
深圳地铁,地铁16号线(龙坪线),900000095071,坪山,1.602,25.42,114.327432,22.705715,900000095071014,,
深圳地铁,地铁16号线(龙坪线),900000095071,新和,0.874,26.294,114.335478,22.703141,900000095071015,,
深圳地铁,地铁16号线(龙坪线),900000095071,六和,0.826,27.12,114.337737,22.696013,900000095071016,,
深圳地铁,地铁16号线(龙坪线),900000095071,坪山围,0.795,27.915,114.34366,22.691398,900000095033005,,
深圳地铁,地铁16号线(龙坪线),900000095071,坪环,0.739,28.654,114.346631,22.685346,900000095071018,,
深圳地铁,地铁16号线(龙坪线),900000095071,东纵纪念馆,0.875,29.529,114.355129,22.685981,900000095071019,,
深圳地铁,地铁16号线(龙坪线),900000095071,沙壆,1.007,30.536,114.36493,22.686481,900000095071020,,
深圳地铁,地铁16号线(龙坪线),900000095071,燕子湖,1.09,31.626,114.375337,22.688473,900000095071021,,
深圳地铁,地铁16号线(龙坪线),900000095071,石井,0.876,32.502,114.383047,22.691854,900000095071022,,
深圳地铁,地铁16号线(龙坪线),900000095071,技术大学,1.996,34.498,114.401168,22.698379,900000095071023,,
深圳地铁,地铁16号线(龙坪线),900000095071,田心,1.435,35.933,114.414221,22.69374,900000095071024,,
深圳地铁,地铁1号线(罗宝线),440300024063,罗湖,0.0,0.0,114.118666,22.532083,440300024063031,,
深圳地铁,地铁1号线(罗宝线),440300024063,国贸,0.845,0.845,114.118909,22.53968,440300024063030,,
深圳地铁,地铁1号线(罗宝线),440300024063,老街,0.545,1.39,114.116939,22.544232,440300024060022,,
深圳地铁,地铁1号线(罗宝线),440300024063,大剧院,0.976,2.366,114.107811,22.5418,440300024063028,,
深圳地铁,地铁1号线(罗宝线),440300024063,科学馆,1.305,3.671,114.095173,22.540618,440300024046036,,
深圳地铁,地铁1号线(罗宝线),440300024063,华强路,1.031,4.702,114.085133,22.540459,440300024063026,,
深圳地铁,地铁1号线(罗宝线),440300024063,岗厦,1.848,6.55,114.06819,22.534854,440300024063025,,
深圳地铁,地铁1号线(罗宝线),440300024063,会展中心,0.728,7.278,114.061101,22.534769,440300024063024,,
深圳地铁,地铁1号线(罗宝线),440300024063,购物公园,0.67,7.948,114.054581,22.534655,440300024060029,,
深圳地铁,地铁1号线(罗宝线),440300024063,香蜜湖,1.704,9.652,114.038637,22.538887,440300024063022,,
深圳地铁,地铁1号线(罗宝线),440300024063,车公庙,1.348,11.0,114.02583,22.536247,440300024050011,,
深圳地铁,地铁1号线(罗宝线),440300024063,竹子林,1.265,12.265,114.013917,22.533357,440300024063020,,
深圳地铁,地铁1号线(罗宝线),440300024063,侨城东,1.776,14.041,113.996651,22.532406,440300024063019,,
深圳地铁,地铁1号线(罗宝线),440300024063,华侨城,1.165,15.206,113.985369,22.533489,440300024063018,,
深圳地铁,地铁1号线(罗宝线),440300024063,世界之窗,1.207,16.413,113.974216,22.5369,440300024063017,,
深圳地铁,地铁1号线(罗宝线),440300024063,白石洲,0.795,17.208,113.967048,22.539604,440300024063016,,
深圳地铁,地铁1号线(罗宝线),440300024063,高新园,1.358,18.566,113.953842,22.540236,440300024063015,,
深圳地铁,地铁1号线(罗宝线),440300024063,深大,1.008,19.574,113.944173,22.538667,440300024063014,,
深圳地铁,地铁1号线(罗宝线),440300024063,桃园,2.145,21.719,113.924781,22.531506,440300024063013,,
深圳地铁,地铁1号线(罗宝线),440300024063,大新,1.0,22.719,113.915072,22.532232,440300024063012,,
深圳地铁,地铁1号线(罗宝线),440300024063,鲤鱼门,1.232,23.951,113.903079,22.532005,440300024063011,,
深圳地铁,地铁1号线(罗宝线),440300024063,前海湾,0.777,24.728,113.897932,22.537121,440300024056006,,
深圳地铁,地铁1号线(罗宝线),440300024063,新安,1.2,25.928,113.894625,22.547468,440300024063009,,
深圳地铁,地铁1号线(罗宝线),440300024063,宝安中心,1.096,27.024,113.887233,22.554575,440300024058025,,
深圳地铁,地铁1号线(罗宝线),440300024063,宝体,0.963,27.987,113.880641,22.560741,440300024063007,,
深圳地铁,地铁1号线(罗宝线),440300024063,坪洲,1.365,29.352,113.870711,22.568908,440300024063006,,
深圳地铁,地铁1号线(罗宝线),440300024063,西乡,1.049,30.401,113.863048,22.575149,440300024063005,,
深圳地铁,地铁1号线(罗宝线),440300024063,固戍,3.359,33.76,113.846792,22.601363,440300024063004,,
深圳地铁,地铁1号线(罗宝线),440300024063,后瑞,3.269,37.029,113.835449,22.628835,440300024063003,,
深圳地铁,地铁1号线(罗宝线),440300024063,机场东,2.41,39.439,113.822634,22.647001,440300024063002,,
深圳地铁,地铁20号线,900000075925,机场北,0.0,0.0,113.798179,22.651128,440300024056026,,
深圳地铁,地铁20号线,900000075925,国展南,4.156,4.156,113.778426,22.683755,900000075925003,,
深圳地铁,地铁20号线,900000075925,国展,1.358,5.514,113.777957,22.695959,900000075925004,,
深圳地铁,地铁20号线,900000075925,国展北,0.805,6.319,113.776899,22.703129,900000075925005,,
深圳地铁,地铁20号线,900000075925,会展城,1.24,7.559,113.769777,22.712135,900000075925006,,
深圳地铁,地铁2号线(8号线),440300024076,赤湾,0.0,0.0,113.897525,22.479227,440300024058035,,
深圳地铁,地铁2号线(8号线),440300024076,蛇口港,1.549,1.549,113.912331,22.476626,440300024076003,,
深圳地铁,地铁2号线(8号线),440300024076,海上世界,0.985,2.534,113.915111,22.485101,440300024076004,,
深圳地铁,地铁2号线(8号线),440300024076,水湾,0.595,3.129,113.919686,22.488389,440300024076005,,
深圳地铁,地铁2号线(8号线),440300024076,东角头,1.2,4.329,113.931149,22.486325,440300024076006,,
深圳地铁,地铁2号线(8号线),440300024076,湾厦,1.094,5.423,113.938604,22.493353,440300024076007,,
深圳地铁,地铁2号线(8号线),440300024076,海月,0.79,6.213,113.937715,22.500409,440300024076008,,
深圳地铁,地铁2号线(8号线),440300024076,登良,0.972,7.185,113.937602,22.509146,440300024076009,,
深圳地铁,地铁2号线(8号线),440300024076,后海,1.172,8.357,113.943503,22.518172,440300024056016,,
深圳地铁,地铁2号线(8号线),440300024076,科苑,1.022,9.379,113.946195,22.527019,440300024076011,,
深圳地铁,地铁2号线(8号线),440300024076,红树湾,2.294,11.673,113.968432,22.525142,440300024076012,,
深圳地铁,地铁2号线(8号线),440300024076,世界之窗,1.436,13.109,113.974216,22.5369,440300024063017,,
深圳地铁,地铁2号线(8号线),440300024076,侨城北,1.724,14.833,113.989148,22.543992,440300024076014,,
深圳地铁,地铁2号线(8号线),440300024076,深康,1.033,15.866,113.998846,22.546456,440300024076015,,
深圳地铁,地铁2号线(8号线),440300024076,安托山,0.802,16.668,114.006236,22.548785,440300024050009,,
深圳地铁,地铁2号线(8号线),440300024076,侨香,0.843,17.511,114.014378,22.549784,440300024076017,,
深圳地铁,地铁2号线(8号线),440300024076,香蜜,1.028,18.539,114.023851,22.552772,440300024076018,,
深圳地铁,地铁2号线(8号线),440300024076,香梅北,0.918,19.457,114.032716,22.55386,440300024076019,,
深圳地铁,地铁2号线(8号线),440300024076,景田,1.092,20.549,114.043343,22.553419,440300024054015,,
深圳地铁,地铁2号线(8号线),440300024076,莲花西,1.018,21.567,114.050034,22.546668,440300024076021,,
深圳地铁,地铁2号线(8号线),440300024076,福田,0.788,22.355,114.052879,22.540087,440300024056002,,
深圳地铁,地铁2号线(8号线),440300024076,市民中心,0.873,23.228,114.061192,22.541744,440300024074013,,
深圳地铁,地铁2号线(8号线),440300024076,岗厦北,0.793,24.021,114.067964,22.53832,440300024056027,,
深圳地铁,地铁2号线(8号线),440300024076,华强北,1.917,25.938,114.085413,22.544441,440300024050028,,
深圳地铁,地铁2号线(8号线),440300024076,燕南,0.734,26.672,114.092561,22.544541,440300024076026,,
深圳地铁,地铁2号线(8号线),440300024076,大剧院,1.596,28.268,114.107811,22.5418,440300024063028,,
深圳地铁,地铁2号线(8号线),440300024076,湖贝,1.831,30.099,114.125439,22.544286,440300024058038,,
深圳地铁,地铁2号线(8号线),440300024076,黄贝岭,1.137,31.236,114.136332,22.546095,440300024058002,,
深圳地铁,地铁2号线(8号线),440300024076,新秀,1.289,32.525,114.148765,22.547688,440300024076030,,
深圳地铁,地铁2号线(8号线),440300024076,莲塘口岸,0.955,33.48,114.155585,22.553524,440300024076031,,
深圳地铁,地铁2号线(8号线),440300024076,仙湖路,1.615,35.095,114.166405,22.564065,440300024076032,,
深圳地铁,地铁2号线(8号线),440300024076,莲塘,0.81,35.905,114.174291,22.564118,440300024076033,,
深圳地铁,地铁2号线(8号线),440300024076,梧桐山南,1.151,37.056,114.183207,22.55785,440300024076034,,
深圳地铁,地铁2号线(8号线),440300024076,沙头角,4.126,41.182,114.223195,22.554232,440300024076035,,
深圳地铁,地铁2号线(8号线),440300024076,海山,1.498,42.68,114.237711,22.555537,440300024076036,,
深圳地铁,地铁2号线(8号线),440300024076,盐田港西,1.223,43.903,114.246899,22.562536,440300024076037,,
深圳地铁,地铁2号线(8号线),440300024076,深外高中,2.402,46.305,114.244559,22.584031,440300024076038,,
深圳地铁,地铁2号线(8号线),440300024076,盐田路,1.363,47.668,114.256321,22.589721,440300024076039,,
深圳地铁,地铁2号线(8号线),440300024076,鸿安围,0.817,48.485,114.264225,22.590544,440300024076040,,
深圳地铁,地铁2号线(8号线),440300024076,盐田墟,1.298,49.783,114.276373,22.587321,440300024076041,,
深圳地铁,地铁2号线(8号线),440300024076,大梅沙,3.316,53.099,114.307825,22.594095,440300024076042,,
深圳地铁,地铁2号线(8号线),440300024076,小梅沙,2.12,55.219,114.326501,22.602226,440300024076043,,
深圳地铁,地铁2号线(8号线),440300024076,溪涌,3.635,58.854,114.360255,22.61211,440300024076044,,
深圳地铁,地铁3号线(龙岗线),440300024060,福保,0.0,0.0,114.055586,22.507884,440300024060032,,
深圳地铁,地铁3号线(龙岗线),440300024060,益田,1.047,1.047,114.050987,22.516287,440300024060031,,
深圳地铁,地铁3号线(龙岗线),440300024060,石厦,0.868,1.915,114.053616,22.523708,440300024050014,,
深圳地铁,地铁3号线(龙岗线),440300024060,购物公园,1.221,3.136,114.054581,22.534655,440300024060029,,
深圳地铁,地铁3号线(龙岗线),440300024060,福田,0.629,3.765,114.052879,22.540087,440300024056002,,
深圳地铁,地铁3号线(龙岗线),440300024060,少年宫,1.209,4.974,114.06017,22.548627,440300024060027,,
深圳地铁,地铁3号线(龙岗线),440300024060,莲花村,0.787,5.761,114.067829,22.548646,440300024060026,,
深圳地铁,地铁3号线(龙岗线),440300024060,华新,1.934,7.695,114.086654,22.548981,440300024050019,,
深圳地铁,地铁3号线(龙岗线),440300024060,通新岭,0.988,8.683,114.096273,22.549126,440300024046037,,
深圳地铁,地铁3号线(龙岗线),440300024060,红岭,0.858,9.541,114.104584,22.54838,440300024054005,,
深圳地铁,地铁3号线(龙岗线),440300024060,老街,1.35,10.891,114.116939,22.544232,440300024060022,,
深圳地铁,地铁3号线(龙岗线),440300024060,晒布,0.81,11.701,114.122664,22.549238,440300024060021,,
深圳地铁,地铁3号线(龙岗线),440300024060,翠竹,1.071,12.772,114.129883,22.556188,440300024060020,,
深圳地铁,地铁3号线(龙岗线),440300024060,田贝,1.233,14.005,114.130052,22.56728,440300024050023,,
深圳地铁,地铁3号线(龙岗线),440300024060,水贝,0.91,14.915,114.124974,22.573988,440300024060018,,
深圳地铁,地铁3号线(龙岗线),440300024060,草埔,1.452,16.367,114.1165,22.584447,440300024060017,,
深圳地铁,地铁3号线(龙岗线),440300024060,布吉,2.045,18.412,114.121159,22.60233,440300024058007,,
深圳地铁,地铁3号线(龙岗线),440300024060,木棉湾,1.072,19.484,114.130293,22.606997,440300024060015,,
深圳地铁,地铁3号线(龙岗线),440300024060,大芬,1.152,20.636,114.138364,22.614191,440300024060014,,
深圳地铁,地铁3号线(龙岗线),440300024060,丹竹头,1.171,21.807,114.148054,22.619752,440300024060013,,
深圳地铁,地铁3号线(龙岗线),440300024060,六约,3.717,25.524,114.180646,22.634322,440300024060012,,
深圳地铁,地铁3号线(龙岗线),440300024060,塘坑,1.352,26.876,114.192725,22.639179,440300024060011,,
深圳地铁,地铁3号线(龙岗线),440300024060,横岗,1.962,28.838,114.208994,22.648442,440300024060010,,
深圳地铁,地铁3号线(龙岗线),440300024060,永湖,1.496,30.334,114.218042,22.658995,440300024060009,,
深圳地铁,地铁3号线(龙岗线),440300024060,荷坳,1.693,32.027,114.22431,22.673079,440300024060008,,
深圳地铁,地铁3号线(龙岗线),440300024060,大运,1.46,33.487,114.228163,22.68572,440300024060007,,
深圳地铁,地铁3号线(龙岗线),440300024060,爱联,1.458,34.945,114.234423,22.697495,440300024060006,,
深圳地铁,地铁3号线(龙岗线),440300024060,吉祥,1.676,36.621,114.244318,22.709488,440300024060005,,
深圳地铁,地铁3号线(龙岗线),440300024060,龙城广场,1.339,37.96,114.254592,22.716915,440300024060004,,
深圳地铁,地铁3号线(龙岗线),440300024060,南联,1.255,39.215,114.265531,22.721967,440300024060003,,
深圳地铁,地铁3号线(龙岗线),440300024060,双龙,1.437,40.652,114.277422,22.728806,440300024060002,,
深圳地铁,地铁3号线(龙岗线),440300024060,梨园,0.803,41.455,114.281737,22.734833,440300024060039,,
深圳地铁,地铁3号线(龙岗线),440300024060,新生,1.469,42.924,114.283024,22.747988,440300024060038,,
深圳地铁,地铁3号线(龙岗线),440300024060,坪西,1.719,44.643,114.28224,22.763426,440300024060037,,
深圳地铁,地铁3号线(龙岗线),440300024060,低碳城,1.115,45.758,114.289355,22.77101,440300024060036,,
深圳地铁,地铁3号线(龙岗线),440300024060,白石塘,1.459,47.217,114.302868,22.775124,440300024060035,,
深圳地铁,地铁3号线(龙岗线),440300024060,富坪,0.996,48.213,114.310908,22.780155,440300024060034,,
深圳地铁,地铁3号线(龙岗线),440300024060,坪地六联,1.372,49.585,114.322059,22.786983,440300024060033,,
深圳地铁,地铁4号线(龙华线),440300024074,福田口岸,0.0,0.0,114.067321,22.516887,440300024074016,,
深圳地铁,地铁4号线(龙华线),440300024074,福民,0.72,0.72,114.065915,22.523226,440300024050015,,
深圳地铁,地铁4号线(龙华线),440300024074,会展中心,1.375,2.095,114.061101,22.534769,440300024063024,,
深圳地铁,地铁4号线(龙华线),440300024074,市民中心,0.776,2.871,114.061192,22.541744,440300024074013,,
深圳地铁,地铁4号线(龙华线),440300024074,少年宫,0.773,3.644,114.06017,22.548627,440300024060027,,
深圳地铁,地铁4号线(龙华线),440300024074,莲花北,1.327,4.971,114.059402,22.560538,440300024074011,,
深圳地铁,地铁4号线(龙华线),440300024074,上梅林,1.104,6.075,114.05944,22.570462,440300024054011,,
深圳地铁,地铁4号线(龙华线),440300024074,民乐,2.851,8.926,114.048809,22.594144,440300024074009,,
深圳地铁,地铁4号线(龙华线),440300024074,白石龙,1.048,9.974,114.042431,22.601505,440300024074008,,
深圳地铁,地铁4号线(龙华线),440300024074,深圳北站,1.597,11.571,114.030298,22.610496,440300024046002,,
深圳地铁,地铁4号线(龙华线),440300024074,红山,1.448,13.019,114.023465,22.621886,440300024046003,,
深圳地铁,地铁4号线(龙华线),440300024074,上塘,2.018,15.037,114.012808,22.637134,440300024074005,,
深圳地铁,地铁4号线(龙华线),440300024074,龙胜,0.85,15.887,114.01201,22.644739,440300024074004,,
深圳地铁,地铁4号线(龙华线),440300024074,龙华,1.315,17.202,114.022419,22.651629,440300024074003,,
深圳地铁,地铁4号线(龙华线),440300024074,清湖,2.004,19.206,114.036538,22.664085,440300024074002,,
深圳地铁,地铁4号线(龙华线),440300024074,清湖北,0.975,20.181,114.040417,22.672087,440300024074024,,
深圳地铁,地铁4号线(龙华线),440300024074,竹村,1.628,21.809,114.040309,22.686728,440300024074023,,
深圳地铁,地铁4号线(龙华线),440300024074,茜坑,1.173,22.982,114.041087,22.697256,440300024074022,,
深圳地铁,地铁4号线(龙华线),440300024074,长湖,1.549,24.531,114.044796,22.710764,440300024074021,,
深圳地铁,地铁4号线(龙华线),440300024074,观澜,1.134,25.665,114.054771,22.715172,440300024074020,,
深圳地铁,地铁4号线(龙华线),440300024074,松元厦,1.197,26.862,114.064878,22.720557,440300024074019,,
深圳地铁,地铁4号线(龙华线),440300024074,观澜湖,1.174,28.036,114.076271,22.721616,440300024074018,,
深圳地铁,地铁4号线(龙华线),440300024074,牛湖,1.373,29.409,114.089254,22.724608,440300024074017,,
深圳地铁,地铁5号线(环中线),440300024058,赤湾,0.0,0.0,113.897525,22.479227,440300024058035,,
深圳地铁,地铁5号线(环中线),440300024058,荔湾,2.109,2.109,113.893485,22.497821,440300024058034,,
深圳地铁,地铁5号线(环中线),440300024058,铁路公园,0.671,2.78,113.889969,22.502908,440300024058033,,
深圳地铁,地铁5号线(环中线),440300024058,妈湾,0.693,3.473,113.885929,22.507904,440300024058032,,
深圳地铁,地铁5号线(环中线),440300024058,前湾公园,0.985,4.458,113.889552,22.516108,440300024058031,,
深圳地铁,地铁5号线(环中线),440300024058,前湾,0.878,5.336,113.895455,22.52182,440300024054041,,
深圳地铁,地铁5号线(环中线),440300024058,桂湾,1.199,6.535,113.897944,22.532358,440300024058029,,
深圳地铁,地铁5号线(环中线),440300024058,前海湾,0.53,7.065,113.897932,22.537121,440300024056006,,
深圳地铁,地铁5号线(环中线),440300024058,临海,1.181,8.246,113.889323,22.54416,440300024058027,,
深圳地铁,地铁5号线(环中线),440300024058,宝华,0.748,8.994,113.88509,22.549635,440300024058026,,
深圳地铁,地铁5号线(环中线),440300024058,宝安中心,0.592,9.586,113.887233,22.554575,440300024058025,,
深圳地铁,地铁5号线(环中线),440300024058,翻身,0.838,10.424,113.893232,22.55969,440300024058024,,
深圳地铁,地铁5号线(环中线),440300024058,灵芝,1.524,11.948,113.904158,22.568964,440300024058023,,
深圳地铁,地铁5号线(环中线),440300024058,洪浪北,0.906,12.854,113.910585,22.574543,440300024058022,,
深圳地铁,地铁5号线(环中线),440300024058,兴东,1.185,14.039,113.919013,22.581822,440300024058021,,
深圳地铁,地铁5号线(环中线),440300024058,留仙洞,2.523,16.562,113.943543,22.580534,440300024058020,,
深圳地铁,地铁5号线(环中线),440300024058,西丽,1.114,17.676,113.954396,22.580677,440300024050004,,
深圳地铁,地铁5号线(环中线),440300024058,大学城,1.129,18.805,113.965307,22.581946,440300024058018,,
深圳地铁,地铁5号线(环中线),440300024058,塘朗,3.642,22.447,113.999666,22.590097,440300024058017,,
深圳地铁,地铁5号线(环中线),440300024058,长岭陂,1.502,23.949,114.010275,22.599395,440300024058016,,
深圳地铁,地铁5号线(环中线),440300024058,深圳北站,2.398,26.347,114.030298,22.610496,440300024046002,,
深圳地铁,地铁5号线(环中线),440300024058,民治,1.337,27.684,114.04085,22.617545,440300024058014,,
深圳地铁,地铁5号线(环中线),440300024058,五和,2.282,29.966,114.060681,22.626833,440300024058013,,
深圳地铁,地铁5号线(环中线),440300024058,坂田,1.046,31.012,114.070852,22.627483,440300024058012,,
深圳地铁,地铁5号线(环中线),440300024058,杨美,0.94,31.952,114.079975,22.626777,440300024058011,,
深圳地铁,地铁5号线(环中线),440300024058,上水径,2.656,34.608,114.105337,22.622046,440300024058010,,
深圳地铁,地铁5号线(环中线),440300024058,下水径,0.971,35.579,114.110662,22.614833,440300024058009,,
深圳地铁,地铁5号线(环中线),440300024058,长龙,0.821,36.4,114.113825,22.608053,440300024058008,,
深圳地铁,地铁5号线(环中线),440300024058,布吉,0.986,37.386,114.121159,22.60233,440300024058007,,
深圳地铁,地铁5号线(环中线),440300024058,百鸽笼,1.218,38.604,114.13038,22.595442,440300024058006,,
深圳地铁,地铁5号线(环中线),440300024058,布心,1.79,40.394,114.138045,22.580986,440300024058005,,
深圳地铁,地铁5号线(环中线),440300024058,太安,0.842,41.236,114.137119,22.573466,440300024050024,,
深圳地铁,地铁5号线(环中线),440300024058,怡景,1.982,43.218,114.140115,22.555856,440300024058003,,
深圳地铁,地铁5号线(环中线),440300024058,黄贝岭,1.153,44.371,114.136332,22.546095,440300024058002,,
深圳地铁,地铁5号线(环中线),440300024058,湖贝,1.137,45.508,114.125439,22.544286,440300024058038,,
深圳地铁,地铁5号线(环中线),440300024058,东门,0.871,46.379,114.117079,22.542946,440300024058037,,
深圳地铁,地铁5号线(环中线),440300024058,大剧院,0.96,47.339,114.107811,22.5418,440300024058036,,
深圳地铁,地铁6号线(光明线),440300024046,松岗,0.0,0.0,113.829631,22.772271,440300024046020,,
深圳地铁,地铁6号线(光明线),440300024046,溪头,0.864,0.864,113.83765,22.774648,440300024046035,,
深圳地铁,地铁6号线(光明线),440300024046,松岗公园,1.152,2.016,113.84831,22.77792,440300024046018,,
深圳地铁,地铁6号线(光明线),440300024046,薯田埔,2.015,4.031,113.867694,22.780928,440300024046034,,
深圳地铁,地铁6号线(光明线),440300024046,合水口,1.359,5.39,113.880928,22.78161,440300024046033,,
深圳地铁,地铁6号线(光明线),440300024046,公明广场,1.171,6.561,113.891407,22.777428,440300024046015,,
深圳地铁,地铁6号线(光明线),440300024046,红花山,1.629,8.19,113.907292,22.777684,440300024046032,,
深圳地铁,地铁6号线(光明线),440300024046,楼村,1.664,9.854,113.923407,22.77591,440300024046031,,
深圳地铁,地铁6号线(光明线),440300024046,科学公园,1.111,10.965,113.934115,22.777469,440300024046030,,
深圳地铁,地铁6号线(光明线),440300024046,光明,1.308,12.273,113.945241,22.771707,440300024046029,,
深圳地铁,地铁6号线(光明线),440300024046,光明大街,1.114,13.387,113.942714,22.761965,440300024046028,,
深圳地铁,地铁6号线(光明线),440300024046,凤凰城,1.907,15.294,113.932831,22.747433,440300024046027,,
深圳地铁,地铁6号线(光明线),440300024046,长圳,2.354,17.648,113.930926,22.726332,440300024046026,,
深圳地铁,地铁6号线(光明线),440300024046,上屋,4.265,21.913,113.939795,22.688855,440300024046025,,
深圳地铁,地铁6号线(光明线),440300024046,官田,1.189,23.102,113.949663,22.683253,440300024046024,,
深圳地铁,地铁6号线(光明线),440300024046,阳台山东,4.639,27.741,113.991785,22.668097,440300024046023,,
深圳地铁,地铁6号线(光明线),440300024046,元芬,1.895,29.636,114.005138,22.656327,440300024046022,,
深圳地铁,地铁6号线(光明线),440300024046,上芬,2.129,31.765,114.016637,22.640394,440300024046021,,
深圳地铁,地铁6号线(光明线),440300024046,红山,2.174,33.939,114.023465,22.621886,440300024046003,,
深圳地铁,地铁6号线(光明线),440300024046,深圳北站,1.448,35.387,114.030298,22.610496,440300024046002,,
深圳地铁,地铁6号线(光明线),440300024046,梅林关,2.946,38.333,114.05319,22.594524,440300024046041,,
深圳地铁,地铁6号线(光明线),440300024046,翰岭,2.778,41.111,114.068894,22.574179,440300024046040,,
深圳地铁,地铁6号线(光明线),440300024046,银湖,2.249,43.36,114.089851,22.568308,440300024046039,,
深圳地铁,地铁6号线(光明线),440300024046,八卦岭,0.863,44.223,114.094649,22.561941,440300024046038,,
深圳地铁,地铁6号线(光明线),440300024046,体育中心,0.822,45.045,114.096104,22.554673,440300024046042,,
深圳地铁,地铁6号线(光明线),440300024046,通新岭,0.617,45.662,114.096273,22.549126,440300024046037,,
深圳地铁,地铁6号线(光明线),440300024046,科学馆,0.953,46.615,114.095173,22.540618,440300024046036,,
深圳地铁,地铁6号线支线,440300024048,光明城站,0.0,0.0,113.953569,22.733024,440300024048007,,
深圳地铁,地铁6号线支线,440300024048,虹桥公园,1.916,1.916,113.950166,22.749968,440300024048008,,
深圳地铁,地铁6号线支线,440300024048,碧眼,0.897,2.813,113.951071,22.757988,440300024048009,,
深圳地铁,地铁6号线支线,440300024048,光明,1.638,4.451,113.945241,22.771707,440300024046029,,
深圳地铁,地铁6号线支线,440300024048,圳美,1.838,6.289,113.949275,22.787814,440300024048003,,
深圳地铁,地铁6号线支线,440300024048,中大,1.093,7.382,113.953546,22.796818,440300024048005,,
深圳地铁,地铁6号线支线,440300024048,深理工,1.873,9.255,113.968595,22.806378,440300024048006,,
深圳地铁,地铁7号线,440300024050,深大丽湖,0.0,0.0,113.988381,22.592903,440300024050031,,
深圳地铁,地铁7号线,440300024050,北大,1.041,1.041,113.978313,22.593998,440300024050032,,
深圳地铁,地铁7号线,440300024050,西丽湖,1.301,2.342,113.965648,22.593567,440300024050003,,
深圳地铁,地铁7号线,440300024050,西丽,1.841,4.183,113.954396,22.580677,440300024050004,,
深圳地铁,地铁7号线,440300024050,茶光,0.727,4.91,113.954311,22.574138,440300024050025,,
深圳地铁,地铁7号线,440300024050,珠光,0.915,5.825,113.960559,22.56827,440300024050005,,
深圳地铁,地铁7号线,440300024050,龙井,1.526,7.351,113.974687,22.56401,440300024050006,,
深圳地铁,地铁7号线,440300024050,桃源村,0.876,8.227,113.981962,22.5599,440300024050007,,
深圳地铁,地铁7号线,440300024050,深云,1.265,9.492,113.993727,22.556537,440300024050008,,
深圳地铁,地铁7号线,440300024050,安托山,1.547,11.039,114.006236,22.548785,440300024050009,,
深圳地铁,地铁7号线,440300024050,农林,1.536,12.575,114.018135,22.540411,440300024050010,,
深圳地铁,地铁7号线,440300024050,车公庙,0.916,13.491,114.02583,22.536247,440300024050011,,
深圳地铁,地铁7号线,440300024050,上沙,1.631,15.122,114.035504,22.524612,440300024050012,,
深圳地铁,地铁7号线,440300024050,沙尾,0.841,15.963,114.042579,22.520798,440300024050013,,
深圳地铁,地铁7号线,440300024050,石厦,1.179,17.142,114.053616,22.523708,440300024050014,,
深圳地铁,地铁7号线,440300024050,皇岗村,0.641,17.783,114.059823,22.523138,440300024050026,,
深圳地铁,地铁7号线,440300024050,福民,0.626,18.409,114.065915,22.523226,440300024050015,,
深圳地铁,地铁7号线,440300024050,皇岗口岸,0.843,19.252,114.073972,22.521799,440300024050016,,
深圳地铁,地铁7号线,440300024050,赤尾,1.453,20.705,114.083598,22.531374,440300024050017,,
深圳地铁,地铁7号线,440300024050,华强南,0.729,21.434,114.086825,22.537214,440300024050018,,
深圳地铁,地铁7号线,440300024050,华强北,0.817,22.251,114.085413,22.544441,440300024050028,,
深圳地铁,地铁7号线,440300024050,华新,0.521,22.772,114.086654,22.548981,440300024050019,,
深圳地铁,地铁7号线,440300024050,黄木岗,0.749,23.521,114.087234,22.555699,440300024050020,,
深圳地铁,地铁7号线,440300024050,八卦岭,1.03,24.551,114.094649,22.561941,440300024046038,,
深圳地铁,地铁7号线,440300024050,红岭北,0.993,25.544,114.104315,22.56203,440300024050022,,
深圳地铁,地铁7号线,440300024050,笋岗,0.733,26.277,114.111295,22.563406,440300024050029,,
深圳地铁,地铁7号线,440300024050,洪湖,1.184,27.461,114.122465,22.566056,440300024050030,,
深圳地铁,地铁7号线,440300024050,田贝,0.791,28.252,114.130052,22.56728,440300024050023,,
深圳地铁,地铁7号线,440300024050,太安,1.0,29.252,114.137119,22.573466,440300024050024,,
深圳地铁,地铁9号线,440300024054,前湾,0.0,0.0,113.895455,22.52182,440300024054041,,
深圳地铁,地铁9号线,440300024054,梦海,0.471,0.471,113.898806,22.518925,440300024054040,,
深圳地铁,地铁9号线,440300024054,怡海,0.675,1.146,113.903758,22.514933,440300024054039,,
深圳地铁,地铁9号线,440300024054,荔林,1.02,2.166,113.913128,22.511903,440300024054038,,
深圳地铁,地铁9号线,440300024054,南油西,0.626,2.792,113.918402,22.509074,440300024054037,,
深圳地铁,地铁9号线,440300024054,南油,0.767,3.559,113.925766,22.510238,440300024054036,,
深圳地铁,地铁9号线,440300024054,南山书城,1.056,4.615,113.928657,22.519355,440300024054035,,
深圳地铁,地铁9号线,440300024054,深大南,1.034,5.649,113.935675,22.526016,440300024054034,,
深圳地铁,地铁9号线,440300024054,粤海门,1.256,6.905,113.945531,22.532695,440300024054033,,
深圳地铁,地铁9号线,440300024054,高新南,0.467,7.372,113.950079,22.532797,440300024054032,,
深圳地铁,地铁9号线,440300024054,红树湾南,2.448,9.82,113.971433,22.523023,440300024054031,,
深圳地铁,地铁9号线,440300024054,深湾,0.738,10.558,113.97862,22.523078,440300024054030,,
深圳地铁,地铁9号线,440300024054,深圳湾公园,1.498,12.056,113.993114,22.521591,440300024054029,,
深圳地铁,地铁9号线,440300024054,下沙,3.308,15.364,114.024334,22.5289,440300024054028,,
深圳地铁,地铁9号线,440300024054,车公庙,0.831,16.195,114.02583,22.536247,440300024050011,,
深圳地铁,地铁9号线,440300024054,香梅,1.746,17.941,114.039683,22.545356,440300024054016,,
深圳地铁,地铁9号线,440300024054,景田,0.972,18.913,114.043343,22.553419,440300024054015,,
深圳地铁,地铁9号线,440300024054,梅景,1.012,19.925,114.037934,22.561028,440300024054027,,
深圳地铁,地铁9号线,440300024054,下梅林,0.649,20.574,114.041768,22.565672,440300024054026,,
深圳地铁,地铁9号线,440300024054,梅村,1.137,21.711,114.052423,22.568443,440300024054025,,
深圳地铁,地铁9号线,440300024054,上梅林,0.755,22.466,114.05944,22.570462,440300024054011,,
深圳地铁,地铁9号线,440300024054,孖岭,0.885,23.351,114.067778,22.568458,440300024054024,,
深圳地铁,地铁9号线,440300024054,银湖,2.267,25.618,114.089851,22.568308,440300024046039,,
深圳地铁,地铁9号线,440300024054,泥岗,0.801,26.419,114.097634,22.567804,440300024054023,,
深圳地铁,地铁9号线,440300024054,红岭北,0.94,27.359,114.104315,22.56203,440300024050022,,
深圳地铁,地铁9号线,440300024054,园岭,0.639,27.998,114.104497,22.556288,440300024054006,,
深圳地铁,地铁9号线,440300024054,红岭,0.879,28.877,114.104584,22.54838,440300024054005,,
深圳地铁,地铁9号线,440300024054,红岭南,1.113,29.99,114.106261,22.53849,440300024054004,,
深圳地铁,地铁9号线,440300024054,鹿丹村,0.393,30.383,114.108625,22.535708,440300024054003,,
深圳地铁,地铁9号线,440300024054,人民南,0.979,31.362,114.118154,22.535514,440300024054021,,
深圳地铁,地铁9号线,440300024054,向西村,0.915,32.277,114.125767,22.539792,440300024054020,,
深圳地铁,地铁9号线,440300024054,文锦,0.6,32.877,114.130962,22.542259,440300024054019,,
深圳地铁,坪山云巴1号线,900000191216,比亚迪北,0.0,0.0,114.361085,22.682131,900000191216011,,
深圳地铁,坪山云巴1号线,900000191216,龙背,0.599,0.599,114.35949,22.687313,900000191216010,,
深圳地铁,坪山云巴1号线,900000191216,自然博物馆西,0.53,1.129,114.358206,22.691926,900000191216009,,
深圳地铁,坪山云巴1号线,900000191216,未来城,0.922,2.051,114.352596,22.698404,900000191216008,,
深圳地铁,坪山云巴1号线,900000191216,燕子岭,1.041,3.092,114.361529,22.702852,900000191216007,,
深圳地铁,坪山云巴1号线,900000191216,综合保税区,0.718,3.81,114.361191,22.709298,900000191216006,,
深圳地铁,坪山云巴1号线,900000191216,中芯国际,0.607,4.417,114.355789,22.711529,900000191216005,,
深圳地铁,坪山云巴1号线,900000191216,坪山中心(云巴1号线),0.433,4.85,114.351609,22.710968,900000191216004,,
深圳地铁,坪山云巴1号线,900000191216,文化聚落,0.63,5.48,114.345531,22.710164,900000191216003,,
深圳地铁,坪山云巴1号线,900000191216,站前路东,0.55,6.03,114.34049,22.70848,900000191216002,,
深圳地铁,坪山云巴1号线,900000191216,坪山高铁站,1.378,7.408,114.327462,22.705473,900000191216001,,
