系统,线路,站名,站间距(km),累计里程(km),经度,纬度,station ID,pinyin,year of opening
北京地铁,S1线,苹果园,0.0,0.0,116.178945,39.925686,110100023339034,,
北京地铁,S1线,金安桥,1.42,1.42,116.162586,39.923298,110100023339035,,
北京地铁,S1线,四道桥,2.567,3.987,116.134010,39.916030,900000069871003,,
北京地铁,S1线,桥户营,0.808,4.795,116.125809,39.912383,900000069871004,,
北京地铁,S1线,上岸,0.862,5.657,116.122225,39.905138,900000069871005,,
北京地铁,S1线,栗园庄,1.044,6.701,116.123254,39.895780,900000069871006,,
北京地铁,S1线,小园,0.956,7.657,116.114443,39.890465,900000069871007,,
北京地铁,S1线,石厂,1.21,8.867,116.100334,39.889378,900000069871008,,
